SALE TYPE,SOLD DATE,PROPERTY TYPE,ADDRESS,CITY,STATE OR PROVINCE,ZIP OR POSTAL CODE,PRICE,BEDS,BATHS,LOCATION,SQUARE FEET,LOT SIZE,YEAR BUILT,DAYS ON MARKET,$/SQUARE FEET,HOA/MONTH,STATUS,NEXT OPEN HOUSE START TIME,NEXT OPEN HOUSE END TIME,URL (SEE https://www.redfin.com/buy-a-home/comparative-market-analysis FOR INFO ON PRICING),SOURCE,MLS#,FAVORITE,INTERESTED,LATITUDE,LONGITUDE
PAST SALE,March-8-2019,Single Family Residential,1831 Calistoga Dr,SAN JOSE,CA,95124,1080000,3,2.0,SAN JOSE,1226,5600,1959,1007,881,,Sold,,,https://www.redfin.com/CA/San-Jose/1831-Calistoga-Dr-95124/home/1606980,MLSListings,ML81735634,N,Y,37.2737103,-121.9193327
PAST SALE,April-15-2020,Single Family Residential,1940 Dry Creek Rd,SAN JOSE,CA,95124,2470000,3,3.0,SAN JOSE,3030,20980,1964,603,815,,Sold,,,https://www.redfin.com/CA/San-Jose/1940-Dry-Creek-Rd-95124/home/1710841,MLSListings,ML81789539,N,Y,37.2801939,-121.9294893
PAST SALE,October-14-2021,Single Family Residential,5262 Camden Ave,SAN JOSE,CA,95124,1410000,3,2.0,SAN JOSE,1372,10086,1976,56,1028,,Sold,,,https://www.redfin.com/CA/San-Jose/5262-Camden-Ave-95124/home/1231455,MLSListings,ML81863748,N,Y,37.2426544,-121.9051075
PAST SALE,September-10-2021,Single Family Residential,1885 Crestmont Dr,SAN JOSE,CA,95124,1900000,4,2.5,SAN JOSE,2042,6332,1967,90,930,60,Sold,,,https://www.redfin.com/CA/San-Jose/1885-Crestmont-Dr-95124/home/1185403,MLSListings,ML81854886,N,Y,37.2802989,-121.9216886
PAST SALE,September-18-2018,Single Family Residential,14661 Charmeran Ave,SAN JOSE,CA,95124,1505000,3,2.0,SAN JOSE,1615,16762,1954,1178,932,,Sold,,,https://www.redfin.com/CA/San-Jose/14661-Charmeran-Ave-95124/home/612289,MLSListings,ML81718882,N,Y,37.2577324,-121.9251334
PAST SALE,January-3-2020,Single Family Residential,1707 Almond Blossom Ln,SAN JOSE,CA,95124,1498000,4,2.0,SAN JOSE,1346,6631,1959,706,1113,,Sold,,,https://www.redfin.com/CA/San-Jose/1707-Almond-Blossom-Ln-95124/home/1692232,MLSListings,ML81776311,N,Y,37.233705,-121.9096642
PAST SALE,April-16-2021,Single Family Residential,3508 Calvin Ave,SAN JOSE,CA,95124,1530000,4,2.0,SAN JOSE,1936,6430,1959,237,790,,Sold,,,https://www.redfin.com/CA/San-Jose/3508-Calvin-Ave-95124/home/1517414,MLSListings,ML81832315,N,Y,37.2623561,-121.9397338
PAST SALE,,Single Family Residential,15447 Stratford Dr,San Jose,CA,95124,1800000,3,2.0,,1631,12598,1948,,1104,,,,,https://www.redfin.com/CA/San-Jose/15447-Stratford-Dr-95124/home/612392,,,N,Y,37.2593496,-121.9396005
PAST SALE,April-30-2021,Single Family Residential,1666 Kirk Ct,SAN JOSE,CA,95124,1950000,3,2.5,SAN JOSE,2260,7620,1990,223,863,,Sold,,,https://www.redfin.com/CA/San-Jose/1666-Kirk-Ct-95124/home/1058204,MLSListings,ML81834755,N,Y,37.2575906,-121.9058633
PAST SALE,March-18-2021,Single Family Residential,1623 York St,SAN JOSE,CA,95124,1300000,3,2.0,SAN JOSE,1470,5529,1962,266,884,,Sold,,,https://www.redfin.com/CA/San-Jose/1623-York-St-95124/home/1702432,MLSListings,ML81825982,N,Y,37.2672135,-121.9048852
PAST SALE,November-13-2017,Single Family Residential,2262 Mount Davidson Dr,SAN JOSE,CA,95124,1150000,3,2.5,SAN JOSE,1650,3000,1979,1487,697,,Sold,,,https://www.redfin.com/CA/San-Jose/2262-Mt-Davidson-Dr-95124/home/1582493,MLSListings,ML81680041,N,Y,37.2623158,-121.9412449
PAST SALE,July-26-2019,Single Family Residential,4093 Cranford Cir,SAN JOSE,CA,95124,1278888,4,2.0,SAN JOSE,1868,6119,1977,867,685,,Sold,,,https://www.redfin.com/CA/San-Jose/4093-Cranford-Cir-95124/home/1444864,MLSListings,ML81752496,N,Y,37.2544315,-121.9459556
PAST SALE,September-20-2021,Townhouse,6054 Calle De Rico,SAN JOSE,CA,95124,940000,2,2.5,SAN JOSE,1360,8660,1975,80,691,435,Sold,,,https://www.redfin.com/CA/San-Jose/6054-Calle-De-Rico-95124/home/920123,MLSListings,ML81856101,N,Y,37.227768,-121.9046462
PAST SALE,February-5-2021,Single Family Residential,1684 Merrill Dr,SAN JOSE,CA,95124,1630000,4,2.0,SAN JOSE,1396,7768,1960,307,1168,,Sold,,,https://www.redfin.com/CA/San-Jose/1684-Merrill-Dr-95124/home/717306,MLSListings,ML81827811,N,Y,37.2399079,-121.9093086
PAST SALE,July-21-2020,Single Family Residential,14480 Esther Dr,SAN JOSE,CA,95124,1250000,3,1.0,SAN JOSE,1107,8280,1948,506,1129,,Sold,,,https://www.redfin.com/CA/San-Jose/14480-Esther-Dr-95124/home/1194076,MLSListings,ML81792907,N,Y,37.2582191,-121.9356006
PAST SALE,December-17-2020,Single Family Residential,1708 Grizilo Dr,SAN JOSE,CA,95124,1699888,4,2.0,SAN JOSE,2010,7390,1963,357,846,,Sold,,,https://www.redfin.com/CA/San-Jose/1708-Grizilo-Dr-95124/home/851947,MLSListings,ML81816905,N,Y,37.2708874,-121.9104422
PAST SALE,August-24-2017,Single Family Residential,2056 Cirone Way,SAN JOSE,CA,95124,1250000,3,2.5,SAN JOSE,1731,7370,1959,1568,722,,Sold,,,https://www.redfin.com/CA/San-Jose/2056-Cirone-Way-95124/home/830944,MLSListings,ML81669405,N,Y,37.2683609,-121.9335783
PAST SALE,July-27-2018,Single Family Residential,14784 Charmeran Ave,SAN JOSE,CA,95124,1975000,4,3.0,SAN JOSE,2643,9260,1950,1231,747,,Sold,,,https://www.redfin.com/CA/San-Jose/14784-Charmeran-Ave-95124/home/1457394,MLSListings,ML81710538,N,Y,37.2568358,-121.9275558
PAST SALE,October-2-2019,Single Family Residential,3085 Yucca Ave,SAN JOSE,CA,95124,880000,4,2.0,SAN JOSE,1248,5001,1953,799,705,,Sold,,,https://www.redfin.com/CA/San-Jose/3085-Yucca-Ave-95124/home/570864,MLSListings,ML81755279,N,Y,37.2691567,-121.907686
PAST SALE,September-4-2020,Single Family Residential,264 Gregg Dr,LOS GATOS,CA,95032,1515000,3,2.0,LOS GATOS,1622,6559,1965,461,934,,Sold,,,https://www.redfin.com/CA/Los-Gatos/264-Gregg-Dr-95032/home/1430471,MLSListings,ML81801413,N,Y,37.2424657,-121.9233555
PAST SALE,December-1-2021,Single Family Residential,1757 Miriam Ct,SAN JOSE,CA,95124,2100000,4,2.5,SAN JOSE,2670,8468,1978,8,787,,Sold,,,https://www.redfin.com/CA/San-Jose/1757-Miriam-Ct-95124/home/786063,MLSListings,ML81865725,N,Y,37.2838024,-121.9137762
PAST SALE,May-2-2019,Single Family Residential,2044 Paseo Del Sol,SAN JOSE,CA,95124,1480000,4,2.5,SAN JOSE,2274,4110,1990,952,651,280,Sold,,,https://www.redfin.com/CA/San-Jose/2044-Pso-Del-Sol-95124/home/1014680,MLSListings,ML81745547,N,Y,37.2636206,-121.9364006
PAST SALE,July-9-2020,Single Family Residential,1775 Foxworthy Ave,SAN JOSE,CA,95124,1200000,4,2.0,SAN JOSE,1589,5550,1954,518,755,,Sold,,,https://www.redfin.com/CA/San-Jose/1775-Foxworthy-Ave-95124/home/852072,MLSListings,ML81796843,N,Y,37.2684844,-121.9150654
PAST SALE,January-12-2021,Single Family Residential,4176 Paladin Dr,SAN JOSE,CA,95124,1710000,5,4.0,SAN JOSE,2403,7779,1959,331,712,,Sold,,,https://www.redfin.com/CA/San-Jose/4176-Paladin-Dr-95124/home/694522,MLSListings,ML81820622,N,Y,37.2578211,-121.9104866
PAST SALE,April-28-2017,Townhouse,1657 Prime Pl #5,SAN JOSE,CA,95124,835000,3,3.0,SAN JOSE,1535,1188,2013,1686,544,234,Sold,,,https://www.redfin.com/CA/San-Jose/1657-Prime-Pl-95124/unit-5/home/52664208,MLSListings,ML81643112,N,Y,37.2686457,-121.9068191
PAST SALE,November-20-2018,Single Family Residential,15182 Stratford Dr,SAN JOSE,CA,95124,1800000,4,3.5,SAN JOSE,2655,8280,1949,1115,678,,Sold,,,https://www.redfin.com/CA/San-Jose/15182-Stratford-Dr-95124/home/1553655,MLSListings,ML81720604,N,Y,37.259077,-121.9346228
PAST SALE,May-8-2019,Single Family Residential,1832 Gunston Way,SAN JOSE,CA,95124,1255888,3,2.0,SAN JOSE,1248,5800,1955,946,1006,,Sold,,,https://www.redfin.com/CA/San-Jose/1832-Gunston-Way-95124/home/1568500,MLSListings,ML81745704,N,Y,37.2545584,-121.9189771
PAST SALE,June-13-2018,Single Family Residential,4375 Ross Ave,SAN JOSE,CA,95124,1350000,4,2.0,SAN JOSE,1590,6462,1959,1275,849,,Sold,,,https://www.redfin.com/CA/San-Jose/4375-Ross-Ave-95124/home/848621,MLSListings,ML81704832,N,Y,37.2555702,-121.9115313
PAST SALE,September-22-2021,Single Family Residential,14351 Lenray Ln,SAN JOSE,CA,95124,2888000,4,4.5,SAN JOSE,3260,9787,2002,78,886,,Sold,,,https://www.redfin.com/CA/San-Jose/14351-Lenray-Ave-95124/home/1457369,MLSListings,ML81857051,N,Y,37.2602587,-121.925489
PAST SALE,April-20-2018,Single Family Residential,15415 Woodard Rd,SAN JOSE,CA,95124,1820000,5,2.0,SAN JOSE,1938,12308,1955,1329,939,,Sold,,,https://www.redfin.com/CA/San-Jose/15415-Woodard-Rd-95124/home/829692,MLSListings,ML81699028,N,Y,37.2604404,-121.9389116
PAST SALE,October-17-2018,Single Family Residential,2311 Monaco Dr,SAN JOSE,CA,95124,1480000,4,2.5,SAN JOSE,2161,6740,1977,1149,685,,Sold,,,https://www.redfin.com/CA/San-Jose/2311-Monaco-Dr-95124/home/873022,MLSListings,ML81717136,N,Y,37.2541394,-121.9434225
PAST SALE,March-29-2019,Single Family Residential,14904 Cole Dr,SAN JOSE,CA,95124,1537000,3,2.0,SAN JOSE,1739,11250,1950,986,884,,Sold,,,https://www.redfin.com/CA/San-Jose/14904-Cole-Dr-95124/home/887980,MLSListings,ML81740359,N,Y,37.2534517,-121.929556
PAST SALE,November-22-2017,Single Family Residential,2411 Lascar Pl,SAN JOSE,CA,95124,1320000,3,2.5,SAN JOSE,2064,4850,1979,1478,640,,Sold,,,https://www.redfin.com/CA/San-Jose/2411-Lascar-Pl-95124/home/1286227,MLSListings,ML81681175,N,Y,37.2567678,-121.9484442
PAST SALE,,Condo/Co-op,2808 Paseo Ln,San Jose,CA,95124,1080000,3,3.0,,1956,,2007,,552,,,,,https://www.redfin.com/CA/San-Jose/2808-Paseo-Ln-95124/home/17288928,,,N,Y,37.2725233,-121.907644
MLS Listing,,Single Family Residential,14389 Branham Ln,SAN JOSE,CA,95124,1499900,3,2.0,SAN JOSE,1636,9451,1952,1,917,,Active,December-11-2021 01:00 PM,December-11-2021 04:00 PM,https://www.redfin.com/CA/San-Jose/14389-Branham-Ln-95124/home/833019,MLSListings,ML81872197,N,Y,37.2511231,-121.9203329
MLS Listing,,Single Family Residential,4255 Hendrix Way,SAN JOSE,CA,95124,1680000,4,2.0,SAN JOSE,1707,6306,1960,1,984,,Active,December-11-2021 01:30 PM,December-11-2021 04:30 PM,https://www.redfin.com/CA/San-Jose/4255-Hendrix-Way-95124/home/856089,MLSListings,ML81872187,N,Y,37.2579234,-121.9068858
MLS Listing,,Single Family Residential,1880 Pandora Dr,SAN JOSE,CA,95124,1488000,3,2.0,SAN JOSE,1237,5783,1952,1,1203,,Active,December-10-2021 03:30 PM,December-10-2021 06:30 PM,https://www.redfin.com/CA/San-Jose/1880-Pandora-Dr-95124/home/1166880,MLSListings,ML81871561,N,Y,37.2702054,-121.9231777
MLS Listing,,Single Family Residential,1945 Borchers Dr,SAN JOSE,CA,95124,1375000,3,2.0,SAN JOSE,1116,8024,1955,3,1232,,Active,December-11-2021 01:00 PM,December-11-2021 04:00 PM,https://www.redfin.com/CA/San-Jose/1945-Borchers-Dr-95124/home/802396,MLSListings,ML81871797,N,Y,37.2698207,-121.9277781
MLS Listing,,Single Family Residential,5482 Bobbywood Ave,SAN JOSE,CA,95124,1998000,3,2.0,SAN JOSE,1876,6953,1968,6,1065,,Active,December-11-2021 02:30 PM,December-11-2021 04:30 PM,https://www.redfin.com/CA/San-Jose/5482-Bobbywood-Ave-95124/home/1269463,MLSListings,ML81871762,N,Y,37.2381264,-121.9177547
MLS Listing,,Single Family Residential,2150 Blossom Crest Way,SAN JOSE,CA,95124,1799000,4,2.0,SAN JOSE,1490,6766,1960,6,1207,,Active,December-11-2021 02:00 PM,December-11-2021 04:00 PM,https://www.redfin.com/CA/San-Jose/2150-Blossom-Crest-Way-95124/home/912087,MLSListings,ML81871746,N,Y,37.2369478,-121.9365339
MLS Listing,,Single Family Residential,5377 Romford Dr,SAN JOSE,CA,95124,1598000,3,2.0,SAN JOSE,1436,6036,1968,7,1113,,Active,,,https://www.redfin.com/CA/San-Jose/5377-Romford-Dr-95124/home/1552173,MLSListings,ML81871108,N,Y,37.2405644,-121.9160878
MLS Listing,,Single Family Residential,1732 Hudson Dr,SAN JOSE,CA,95124,1998000,4,2.0,SAN JOSE,1716,5954,1962,9,1164,,Active,,,https://www.redfin.com/CA/San-Jose/1732-Hudson-Dr-95124/home/902516,MLSListings,ML81869365,N,Y,37.2771833,-121.9123982
PAST SALE,December-9-2020,Single Family Residential,254 Coronet Dr,LOS GATOS,CA,95032,1900000,4,3.0,LOS GATOS,2518,13796,1973,365,755,,Sold,,,https://www.redfin.com/CA/Los-Gatos/254-Coronet-Dr-95032/home/1373768,MLSListings,ML81809649,N,Y,37.2406022,-121.9404005
PAST SALE,June-30-2020,Single Family Residential,258 Coronet Dr,LOS GATOS,CA,95032,1980000,5,2.5,LOS GATOS,2314,12195,1969,527,856,,Sold,,,https://www.redfin.com/CA/Los-Gatos/258-Coronet-Dr-95032/home/1016899,MLSListings,ML81790249,N,Y,37.2407479,-121.9406671
PAST SALE,April-19-2017,Single Family Residential,1804 Greencreek Dr,SAN JOSE,CA,95124,1690888,3,2.5,SAN JOSE,2392,7140,1968,1695,707,,Sold,,,https://www.redfin.com/CA/San-Jose/1804-Greencreek-Dr-95124/home/873462,MLSListings,ML81642257,N,Y,37.281085,-121.9205107
PAST SALE,June-10-2019,Single Family Residential,5342 Keene Dr,SAN JOSE,CA,95124,1552000,3,2.0,SAN JOSE,1706,6156,1958,913,910,,Sold,,,https://www.redfin.com/CA/San-Jose/5342-Keene-Dr-95124/home/1196089,MLSListings,ML81749053,N,Y,37.2408343,-121.9369291
PAST SALE,April-25-2019,Single Family Residential,5391 Taft Dr,SAN JOSE,CA,95124,1700000,4,3.0,SAN JOSE,2130,6688,1958,959,798,,Sold,,,https://www.redfin.com/CA/San-Jose/5391-Taft-Dr-95124/home/679870,MLSListings,ML81743576,N,Y,37.2403448,-121.9366228
PAST SALE,,Single Family Residential,1914 Crestmont Dr,San Jose,CA,95124,1900000,3,3.0,,1890,6694,1967,,1005,,,,,https://www.redfin.com/CA/San-Jose/1914-Crestmont-Dr-95124/home/1194732,,,N,Y,37.2796181,-121.9208718
PAST SALE,May-16-2018,Single Family Residential,4062 Cranford Cir,SAN JOSE,CA,95124,1525000,4,2.0,SAN JOSE,1868,6112,1977,1303,816,,Sold,,,https://www.redfin.com/CA/San-Jose/4062-Cranford-Cir-95124/home/785729,MLSListings,ML81699470,N,Y,37.2540943,-121.9452001
PAST SALE,March-14-2018,Single Family Residential,1803 Chevalier Dr,SAN JOSE,CA,95124,1400000,3,2.0,SAN JOSE,1468,7278,1970,1366,954,,Sold,,,https://www.redfin.com/CA/San-Jose/1803-Chevalier-Dr-95124/home/1419225,MLSListings,ML81690869,N,Y,37.2405381,-121.9175547
PAST SALE,February-16-2018,Single Family Residential,231 Westchester Dr,LOS GATOS,CA,95032,2050000,4,2.5,LOS GATOS,2097,9718,1967,1392,978,,Sold,,,https://www.redfin.com/CA/Los-Gatos/231-Westchester-Dr-95032/home/910417,MLSListings,ML81688259,N,Y,37.242494,-121.940464
PAST SALE,October-31-2017,Single Family Residential,1875 Blossom Hill Rd,SAN JOSE,CA,95124,1360000,3,2.0,SAN JOSE,2104,10500,1965,1500,646,,Sold,,,https://www.redfin.com/CA/San-Jose/1875-Blossom-Hill-Rd-95124/home/1767266,MLSListings,ML81675513,N,Y,37.236476,-121.923213
PAST SALE,June-20-2019,Single Family Residential,5451 Del Oro Dr,SAN JOSE,CA,95124,1610000,4,2.5,SAN JOSE,2241,6876,1968,903,718,,Sold,,,https://www.redfin.com/CA/San-Jose/5451-Del-Oro-Dr-95124/home/1744017,MLSListings,ML81751248,N,Y,37.2389889,-121.9207107
PAST SALE,October-19-2020,Single Family Residential,1815 Chevalier Dr,SAN JOSE,CA,95124,1405000,3,2.0,SAN JOSE,1436,7095,1968,416,978,,Sold,,,https://www.redfin.com/CA/San-Jose/1815-Chevalier-Dr-95124/home/912723,MLSListings,ML81810178,N,Y,37.2404995,-121.9183103
PAST SALE,August-17-2017,Single Family Residential,5263 Romford Dr,SAN JOSE,CA,95124,1330000,3,2.0,SAN JOSE,1553,6300,1969,1575,856,,Sold,,,https://www.redfin.com/CA/San-Jose/5263-Romford-Dr-95124/home/628774,MLSListings,ML81669199,N,Y,37.2423693,-121.9161544
PAST SALE,May-10-2018,Single Family Residential,5229 Rucker Dr,SAN JOSE,CA,95124,1375000,4,2.0,SAN JOSE,1553,6985,1969,1309,885,,Sold,,,https://www.redfin.com/CA/San-Jose/5229-Rucker-Dr-95124/home/1220024,MLSListings,ML81700498,N,Y,37.2427797,-121.9170435
PAST SALE,March-14-2018,Single Family Residential,5323 Rucker Dr,SAN JOSE,CA,95124,1625000,3,2.0,SAN JOSE,1493,7132,1969,1366,1088,,Sold,,,https://www.redfin.com/CA/San-Jose/5323-Rucker-Dr-95124/home/1269427,MLSListings,ML81691034,N,Y,37.2412492,-121.9170657
PAST SALE,September-17-2018,Single Family Residential,5397 Elrose Ave,SAN JOSE,CA,95124,1310000,4,2.0,SAN JOSE,1628,6524,1968,1179,805,,Sold,,,https://www.redfin.com/CA/San-Jose/5397-Elrose-Ave-95124/home/1863699,MLSListings,ML81718507,N,Y,37.240247,-121.9141985
PAST SALE,August-16-2019,Single Family Residential,5244 Elrose Ave,SAN JOSE,CA,95124,1400000,3,2.0,SAN JOSE,1392,6546,1969,846,1006,,Sold,,,https://www.redfin.com/CA/San-Jose/5244-Elrose-Ave-95124/home/912741,MLSListings,ML81759910,N,Y,37.2427654,-121.9136429
PAST SALE,December-27-2016,Single Family Residential,1993 Kirby Way,SAN JOSE,CA,95124,975000,3,2.0,SAN JOSE,1545,6973,1956,1808,631,,Sold,,,https://www.redfin.com/CA/San-Jose/1993-Kirby-Way-95124/home/1568352,MLSListings,ML81631075,N,Y,37.2738809,-121.9312894
PAST SALE,August-13-2021,Single Family Residential,4106 Woodford Dr,SAN JOSE,CA,95124,1815000,3,2.0,SAN JOSE,1522,7117,1959,118,1193,,Sold,,,https://www.redfin.com/CA/San-Jose/4106-Woodford-Dr-95124/home/1143198,MLSListings,ML81853179,N,Y,37.2586134,-121.9096642
PAST SALE,,Single Family Residential,3176 Kathleen St,San Jose,CA,95124,1535000,3,2.0,,1624,5780,1955,,945,,,,,https://www.redfin.com/CA/San-Jose/3176-Kathleen-St-95124/home/1741139,,,N,Y,37.2656253,-121.9268447
PAST SALE,July-16-2019,Single Family Residential,220 Westchester Dr,LOS GATOS,CA,95032,2060000,4,2.0,LOS GATOS,2272,10940,1968,877,907,,Sold,,,https://www.redfin.com/CA/Los-Gatos/220-Westchester-Dr-95032/home/1130107,MLSListings,ML81756874,N,Y,37.2418522,-121.9406227
PAST SALE,,Single Family Residential,1937 Trenton Dr,San Jose,CA,95124,1391000,3,2.0,,1156,8087,1955,,1203,,,,,https://www.redfin.com/CA/San-Jose/1937-Trenton-Dr-95124/home/827105,,,N,Y,37.2691425,-121.9271558
PAST SALE,January-19-2018,Single Family Residential,5495 Copeland Ct,SAN JOSE,CA,95124,1680000,4,2.5,SAN JOSE,2441,8000,1968,1420,688,,Sold,,,https://www.redfin.com/CA/San-Jose/5495-Copeland-Ct-95124/home/913526,MLSListings,ML81686631,N,Y,37.2380176,-121.9196217
PAST SALE,June-27-2018,Single Family Residential,1832 Anne Ct,SAN JOSE,CA,95124,1670000,4,3.0,SAN JOSE,2241,7271,1968,1261,745,,Sold,,,https://www.redfin.com/CA/San-Jose/1832-Anne-Ct-95124/home/1421366,MLSListings,ML81706664,N,Y,37.2382482,-121.9193549
PAST SALE,October-14-2020,Single Family Residential,259 Coronet Dr,LOS GATOS,CA,95032,2110000,3,2.0,LOS GATOS,1993,9240,1968,421,1059,,Sold,,,https://www.redfin.com/CA/Los-Gatos/259-Coronet-Dr-95032/home/911429,MLSListings,ML81809389,N,Y,37.2411908,-121.9404449
PAST SALE,September-27-2017,Single Family Residential,1834 Anne Ct,SAN JOSE,CA,95124,1515000,3,2.5,SAN JOSE,2035,6790,1968,1534,744,,Sold,,,https://www.redfin.com/CA/San-Jose/1834-Anne-Ct-95124/home/614515,MLSListings,ML81674042,N,Y,37.2382313,-121.9195994
PAST SALE,February-23-2017,Single Family Residential,5556 Del Oro Dr,SAN JOSE,CA,95124,1450000,3,2.5,SAN JOSE,2035,6360,1968,1750,713,,Sold,,,https://www.redfin.com/CA/San-Jose/5556-Del-Oro-Dr-95124/home/1363179,MLSListings,ML81636985,N,Y,37.2372119,-121.9204884
PAST SALE,April-26-2019,Single Family Residential,2255 Coronet Dr,SAN JOSE,CA,95124,2020000,3,2.5,SAN JOSE,2427,13203,1959,958,832,,Sold,,,https://www.redfin.com/CA/San-Jose/2255-Coronet-Dr-95124/home/1369518,MLSListings,ML81743092,N,Y,37.2410719,-121.9400894
PAST SALE,,Single Family Residential,15439 Lone Hill Rd,Los Gatos,CA,95032,3000000,4,4.0,,3121,11124,2003,,961,,,,,https://www.redfin.com/CA/Los-Gatos/15439-Lone-Hill-Rd-95032/home/1046258,,,N,Y,37.2443963,-121.9219997
PAST SALE,December-17-2020,Single Family Residential,1952 Abinante Ln,SAN JOSE,CA,95124,1580000,3,2.5,SAN JOSE,1721,8777,1958,357,918,,Sold,,,https://www.redfin.com/CA/San-Jose/1952-Abinante-Ln-95124/home/1357121,MLSListings,ML81819264,N,Y,37.2701179,-121.9279781
PAST SALE,August-2-2019,Single Family Residential,15194 Woodard Rd,SAN JOSE,CA,95124,940000,2,1.0,SAN JOSE,868,8280,1948,860,1083,,Sold,,,https://www.redfin.com/CA/San-Jose/15194-Woodard-Rd-95124/home/665574,MLSListings,ML81754803,N,Y,37.2600137,-121.9348228
PAST SALE,October-13-2020,Single Family Residential,5594 Del Oro Dr,SAN JOSE,CA,95124,1710000,4,2.0,SAN JOSE,2111,7171,1968,422,810,,Sold,,,https://www.redfin.com/CA/San-Jose/5594-Del-Oro-Dr-95124/home/912933,MLSListings,ML81809504,N,Y,37.2366985,-121.920444
PAST SALE,,Single Family Residential,1796 Chevalier Dr,San Jose,CA,95124,1062500,3,2.0,,1728,7110,1959,,615,,,,,https://www.redfin.com/CA/San-Jose/1796-Chevalier-Dr-95124/home/1182062,,,N,Y,37.2398546,-121.9171991
PAST SALE,May-11-2021,Single Family Residential,2242 Grey Ct,SAN JOSE,CA,95124,2365000,4,2.5,SAN JOSE,1970,9028,1961,212,1201,,Sold,,,https://www.redfin.com/CA/San-Jose/2242-Grey-Ct-95124/home/910413,MLSListings,ML81837622,N,Y,37.2413134,-121.9399116
PAST SALE,November-4-2019,Single Family Residential,1777 Gilda Way,SAN JOSE,CA,95124,1070000,3,2.0,SAN JOSE,1378,8720,1959,766,776,,Sold,,,https://www.redfin.com/CA/San-Jose/1777-Gilda-Way-95124/home/912876,MLSListings,ML81768963,N,Y,37.237899,-121.9164434
PAST SALE,November-19-2020,Single Family Residential,1756 Chevalier Dr,SAN JOSE,CA,95124,1050000,3,2.0,SAN JOSE,1066,5305,1959,385,985,,Sold,,,https://www.redfin.com/CA/San-Jose/1756-Chevalier-Dr-95124/home/1691937,MLSListings,ML81815015,N,Y,37.2398803,-121.9136651
PAST SALE,,Condo/Co-op,2224 LG Almaden Rd,San Jose,CA,95124,1350000,3,3.0,,2464,,1985,,548,,,,,https://www.redfin.com/CA/San-Jose/2224-LG-Almaden-Rd-95124/home/910409,,,N,Y,37.243096,-121.9391502
PAST SALE,February-27-2020,Single Family Residential,2433 Apsis Ave,SAN JOSE,CA,95124,1300000,3,2.0,SAN JOSE,1394,5024,1979,651,933,,Sold,,,https://www.redfin.com/CA/San-Jose/2433-Apsis-Ave-95124/home/836661,MLSListings,ML81781057,N,Y,37.2564122,-121.9493775
PAST SALE,August-27-2020,Single Family Residential,1715 Hogar Dr,SAN JOSE,CA,95124,1155000,3,2.0,SAN JOSE,1288,5000,1954,469,897,,Sold,,,https://www.redfin.com/CA/San-Jose/1715-Hogar-Dr-95124/home/1077306,MLSListings,ML81801908,N,Y,37.268906,-121.9104644
PAST SALE,March-18-2021,Single Family Residential,5511 Mary Jo Way,SAN JOSE,CA,95124,1565000,3,2.0,SAN JOSE,1286,6332,1964,266,1217,,Sold,,,https://www.redfin.com/CA/San-Jose/5511-Mary-Jo-Way-95124/home/1639156,MLSListings,ML81828733,N,Y,37.2376637,-121.9169768
PAST SALE,July-16-2018,Single Family Residential,1699 Clovis Ave,SAN JOSE,CA,95124,1325000,4,2.0,SAN JOSE,1396,7459,1959,1242,949,,Sold,,,https://www.redfin.com/CA/San-Jose/1699-Clovis-Ave-95124/home/1454810,MLSListings,ML81711207,N,Y,37.2392963,-121.909842
PAST SALE,April-26-2018,Single Family Residential,5317 Alan Ave,SAN JOSE,CA,95124,1465000,3,2.0,SAN JOSE,1208,7698,1962,1323,1213,,Sold,,,https://www.redfin.com/CA/San-Jose/5317-Alan-Ave-95124/home/918189,MLSListings,ML81698085,N,Y,37.2415609,-121.9087529
PAST SALE,September-18-2020,Single Family Residential,5490 Blossom Acres Dr,SAN JOSE,CA,95124,1525000,3,2.0,SAN JOSE,1624,6894,1960,447,939,,Sold,,,https://www.redfin.com/CA/San-Jose/5490-Blossom-Acres-Dr-95124/home/911154,MLSListings,ML81806193,N,Y,37.2383568,-121.9356006
PAST SALE,August-11-2017,Single Family Residential,1691 Merrill Dr,SAN JOSE,CA,95124,1300000,4,2.0,SAN JOSE,1829,7800,1960,1581,711,,Sold,,,https://www.redfin.com/CA/San-Jose/1691-Merrill-Dr-95124/home/1348451,MLSListings,ML81655878,N,Y,37.2403706,-121.9100865
PAST SALE,November-18-2019,Single Family Residential,1693 Merrill Dr,SAN JOSE,CA,95124,1280000,4,2.0,SAN JOSE,1396,7744,1960,752,917,,Sold,,,https://www.redfin.com/CA/San-Jose/1693-Merrill-Dr-95124/home/1780874,MLSListings,ML81771793,N,Y,37.2404423,-121.9102866
PAST SALE,December-19-2019,Single Family Residential,5481 Begonia Dr,SAN JOSE,CA,95124,1300000,4,2.0,SAN JOSE,1396,7143,1959,721,931,,Sold,,,https://www.redfin.com/CA/San-Jose/5481-Begonia-Dr-95124/home/904304,MLSListings,ML81775009,N,Y,37.2382929,-121.9112424
PAST SALE,July-19-2017,Single Family Residential,5511 Begonia Dr,SAN JOSE,CA,95124,1225000,3,2.0,SAN JOSE,1220,7200,1959,1604,1004,,Sold,,,https://www.redfin.com/CA/San-Jose/5511-Begonia-Dr-95124/home/1841384,MLSListings,ML81655266,N,Y,37.2378159,-121.9112646
PAST SALE,August-6-2020,Single Family Residential,5484 Harwood Rd,SAN JOSE,CA,95124,1430000,4,2.0,SAN JOSE,1598,8080,1959,490,895,,Sold,,,https://www.redfin.com/CA/San-Jose/5484-Harwood-Rd-95124/home/1743415,MLSListings,ML81800506,N,Y,37.2382656,-121.912776
PAST SALE,July-17-2020,Single Family Residential,5464 Muir Dr,SAN JOSE,CA,95124,1750000,5,4.0,SAN JOSE,2680,7143,1959,510,653,,Sold,,,https://www.redfin.com/CA/San-Jose/5464-Muir-Dr-95124/home/1126596,MLSListings,ML81796562,N,Y,37.2386723,-121.9096642
PAST SALE,October-10-2019,Single Family Residential,5463 Muir Dr,SAN JOSE,CA,95124,1300000,4,2.0,SAN JOSE,1876,7381,1959,791,693,,Sold,,,https://www.redfin.com/CA/San-Jose/5463-Muir-Dr-95124/home/1434901,MLSListings,ML81754148,N,Y,37.2386616,-121.9102644
PAST SALE,December-21-2020,Single Family Residential,5550 Lauren Dr,SAN JOSE,CA,95124,1605000,5,2.0,SAN JOSE,2038,9533,1958,353,788,,Sold,,,https://www.redfin.com/CA/San-Jose/5550-Lauren-Dr-95124/home/919077,MLSListings,ML81818792,N,Y,37.2371221,-121.9065523
PAST SALE,February-3-2017,Single Family Residential,5649 Arbor Dell Way,SAN JOSE,CA,95124,1360000,4,3.0,SAN JOSE,2406,11569,1960,1770,565,,Sold,,,https://www.redfin.com/CA/San-Jose/5649-Arbor-Dell-Way-95124/home/1598295,MLSListings,ML81628967,N,Y,37.2350604,-121.9053965
PAST SALE,November-22-2017,Single Family Residential,1983 Elden Dr,SAN JOSE,CA,95124,1451000,4,3.0,SAN JOSE,2214,6489,1965,1478,655,,Sold,,,https://www.redfin.com/CA/San-Jose/1983-Elden-Dr-95124/home/1727374,MLSListings,ML81680833,N,Y,37.2758122,-121.930556
PAST SALE,September-15-2017,Single Family Residential,1619 Orchard View Dr,SAN JOSE,CA,95124,1200000,3,2.0,SAN JOSE,1243,6000,1958,1546,965,,Sold,,,https://www.redfin.com/CA/San-Jose/1619-Orchard-View-Dr-95124/home/919071,MLSListings,ML81674611,N,Y,37.2347469,-121.9046852
PAST SALE,September-16-2020,Single Family Residential,1688 Kevin Dr,SAN JOSE,CA,95124,1515000,4,2.0,SAN JOSE,1876,7112,1959,449,808,,Sold,,,https://www.redfin.com/CA/San-Jose/1688-Kevin-Dr-95124/home/1534926,MLSListings,ML81804881,N,Y,37.2368705,-121.9087084
PAST SALE,July-30-2019,Single Family Residential,5516 Fern Dr,SAN JOSE,CA,95124,1325000,3,2.0,SAN JOSE,1220,7099,1959,863,1086,,Sold,,,https://www.redfin.com/CA/San-Jose/5516-Fern-Dr-95124/home/1330094,MLSListings,ML81758604,N,Y,37.2378137,-121.9085751
PAST SALE,August-3-2017,Single Family Residential,5466 Fern Dr,SAN JOSE,CA,95124,1235000,4,2.0,SAN JOSE,1396,7200,1959,1589,885,,Sold,,,https://www.redfin.com/CA/San-Jose/5466-Fern-Dr-95124/home/1360172,MLSListings,ML81668193,N,Y,37.2387035,-121.9086195
PAST SALE,June-23-2020,Single Family Residential,1641 Orchard View Dr,SAN JOSE,CA,95124,1330000,4,2.0,SAN JOSE,1359,6022,1958,534,979,,Sold,,,https://www.redfin.com/CA/San-Jose/1641-Orchard-View-Dr-95124/home/920023,MLSListings,ML81792817,N,Y,37.2347158,-121.9057299
PAST SALE,March-19-2020,Single Family Residential,1642 Orchard View Dr,SAN JOSE,CA,95124,1359000,3,2.0,SAN JOSE,1243,6010,1959,630,1093,,Sold,,,https://www.redfin.com/CA/San-Jose/1642-Orchard-View-Dr-95124/home/1126675,MLSListings,ML81781925,N,Y,37.2342775,-121.9056854
PAST SALE,,Single Family Residential,1628 Orchard View Dr,San Jose,CA,95124,1475000,3,2.0,,1940,5942,1958,,760,,,,,https://www.redfin.com/CA/San-Jose/1628-Orchard-View-Dr-95124/home/1553350,,,N,Y,37.234276,-121.905063
PAST SALE,June-22-2021,Single Family Residential,2042 Barrett Ave,SAN JOSE,CA,95124,1830000,4,2.0,SAN JOSE,1392,6275,1961,170,1315,,Sold,,,https://www.redfin.com/CA/San-Jose/2042-Barrett-Ave-95124/home/1299461,MLSListings,ML81843703,N,Y,37.2555607,-121.9328672
PAST SALE,May-27-2019,Single Family Residential,5742 Lilac Blossom Ln,SAN JOSE,CA,95124,1450000,3,2.0,SAN JOSE,1602,7184,1959,927,905,,Sold,,,https://www.redfin.com/CA/San-Jose/5742-Lilac-Blossom-Ln-95124/home/1052199,MLSListings,ML81748304,N,Y,37.2326282,-121.9067302
PAST SALE,November-19-2020,Single Family Residential,1608 Almond Blossom Ln,SAN JOSE,CA,95124,1855000,6,4.0,SAN JOSE,2772,6172,1959,385,669,,Sold,,,https://www.redfin.com/CA/San-Jose/1608-Almond-Blossom-Ln-95124/home/1650307,MLSListings,ML81815269,N,Y,37.2335787,-121.9040628
PAST SALE,August-15-2017,Single Family Residential,5604 Begonia Dr,SAN JOSE,CA,95124,950000,3,2.0,SAN JOSE,1253,6500,1961,1577,758,,Sold,,,https://www.redfin.com/CA/San-Jose/5604-Begonia-Dr-95124/home/890383,MLSListings,ML81652574,N,Y,37.2360737,-121.9104866
PAST SALE,September-24-2020,Single Family Residential,5659 Begonia Dr,SAN JOSE,CA,95124,1400000,4,2.0,SAN JOSE,1400,6174,1959,441,1000,,Sold,,,https://www.redfin.com/CA/San-Jose/5659-Begonia-Dr-95124/home/1017086,MLSListings,ML81786864,N,Y,37.234633,-121.9110868
PAST SALE,March-8-2019,Single Family Residential,1683 Hyacinth Ln,SAN JOSE,CA,95124,1367000,3,2.0,SAN JOSE,1525,5917,1962,1007,896,,Sold,,,https://www.redfin.com/CA/San-Jose/1683-Hyacinth-Ln-95124/home/1241616,MLSListings,ML81736860,N,Y,37.2308165,-121.9084417
PAST SALE,May-10-2018,Single Family Residential,1693 Peony Ln,SAN JOSE,CA,95124,1718000,4,2.0,SAN JOSE,1840,6138,1972,1309,934,,Sold,,,https://www.redfin.com/CA/San-Jose/1693-Peony-Ln-95124/home/788091,MLSListings,ML81699963,N,Y,37.2343931,-121.9090641
PAST SALE,June-5-2020,Single Family Residential,1681 Lobelia Ln,SAN JOSE,CA,95124,1230000,4,2.0,SAN JOSE,1840,7200,1972,552,668,,Sold,,,https://www.redfin.com/CA/San-Jose/1681-Lobelia-Ln-95124/home/737072,MLSListings,ML81786616,N,Y,37.2355825,-121.9084862
PAST SALE,March-16-2017,Single Family Residential,1715 Zinnia Ln,SAN JOSE,CA,95124,1165000,3,2.0,SAN JOSE,1210,6426,1961,1729,963,,Sold,,,https://www.redfin.com/CA/San-Jose/1715-Zinnia-Ln-95124/home/1808195,MLSListings,ML81638234,N,Y,37.232229,-121.910131
PAST SALE,July-11-2019,Single Family Residential,1709 Hydrangea Ln,SAN JOSE,CA,95124,1310000,4,2.0,SAN JOSE,1364,6426,1961,882,960,,Sold,,,https://www.redfin.com/CA/San-Jose/1709-Hydrangea-Ln-95124/home/919701,MLSListings,ML81755821,N,Y,37.2329488,-121.9098643
PAST SALE,July-9-2020,Single Family Residential,1713 Hydrangea Ln,SAN JOSE,CA,95124,1550000,4,2.0,SAN JOSE,1980,6331,1961,518,783,,Sold,,,https://www.redfin.com/CA/San-Jose/1713-Hydrangea-Ln-95124/home/573184,MLSListings,ML81795055,N,Y,37.2329696,-121.9101088
PAST SALE,April-22-2019,Single Family Residential,1717 Hydrangea Ln,SAN JOSE,CA,95124,2107000,4,3.0,SAN JOSE,2203,6340,2019,962,956,,Sold,,,https://www.redfin.com/CA/San-Jose/1717-Hydrangea-Ln-95124/home/1247567,MLSListings,ML81743543,N,Y,37.2329162,-121.9102866
PAST SALE,December-11-2020,Single Family Residential,1710 Canna Ln,SAN JOSE,CA,95124,1425000,3,2.0,SAN JOSE,1210,6057,1962,363,1178,,Sold,,,https://www.redfin.com/CA/San-Jose/1710-Canna-Ln-95124/home/1130330,MLSListings,ML81816876,N,Y,37.231066,-121.9099309
PAST SALE,October-28-2020,Single Family Residential,1706 Canna Ln,SAN JOSE,CA,95124,1360000,3,2.0,SAN JOSE,1210,5894,1962,407,1124,,Sold,,,https://www.redfin.com/CA/San-Jose/1706-Canna-Ln-95124/home/749649,MLSListings,ML81811731,N,Y,37.2310829,-121.9096864
PAST SALE,December-14-2017,Single Family Residential,1693 Canna Ln,SAN JOSE,CA,95124,1585000,4,2.0,SAN JOSE,1364,6039,1962,1456,1162,,Sold,,,https://www.redfin.com/CA/San-Jose/1693-Canna-Ln-95124/home/1247564,MLSListings,ML81684764,N,Y,37.2314954,-121.9090641
PAST SALE,July-1-2020,Single Family Residential,1644 Ixias Ct,SAN JOSE,CA,95124,1250000,3,2.0,SAN JOSE,1286,8526,1963,526,972,,Sold,,,https://www.redfin.com/CA/San-Jose/1644-Ixias-Ct-95124/home/875182,MLSListings,ML81793958,N,Y,37.2300863,-121.9071747
PAST SALE,December-19-2018,Single Family Residential,1628 Ixias Ct,SAN JOSE,CA,95124,1100000,4,2.0,SAN JOSE,1282,6360,1963,1086,858,,Sold,,,https://www.redfin.com/CA/San-Jose/1628-Ixias-Ct-95124/home/919733,MLSListings,ML81731843,N,Y,37.2299449,-121.9059522
PAST SALE,November-7-2017,Single Family Residential,1651 Hyacinth Ln,SAN JOSE,CA,95124,1054000,3,2.0,SAN JOSE,1286,6180,1963,1493,820,,Sold,,,https://www.redfin.com/CA/San-Jose/1651-Hyacinth-Ln-95124/home/1406074,MLSListings,ML81678472,N,Y,37.2296978,-121.9071525
PAST SALE,June-30-2020,Single Family Residential,1684 Hydrangea Ln,SAN JOSE,CA,95124,2055000,3,3.0,SAN JOSE,2085,7140,1980,527,986,,Sold,,,https://www.redfin.com/CA/San-Jose/1684-Hydrangea-Ln-95124/home/1340397,MLSListings,ML81794125,N,Y,37.2325417,-121.9087751
PAST SALE,March-29-2021,Single Family Residential,1673 Hydrangea Ln,SAN JOSE,CA,95124,2150000,4,3.0,SAN JOSE,2118,8000,1980,255,1015,,Sold,,,https://www.redfin.com/CA/San-Jose/1673-Hydrangea-Ln-95124/home/1779945,MLSListings,ML81830097,N,Y,37.2327722,-121.9085084
PAST SALE,April-20-2018,Single Family Residential,5925 Hosta Ln,SAN JOSE,CA,95124,1810000,4,2.5,SAN JOSE,2271,13881,1975,1329,797,,Sold,,,https://www.redfin.com/CA/San-Jose/5925-Hosta-Ln-95124/home/1544433,MLSListings,ML81697103,N,Y,37.2286855,-121.9076415
PAST SALE,,Single Family Residential,16743 Hicks Rd,Los Gatos,CA,95032,900000,2,3.0,,1275,52552,1978,,706,,,,,https://www.redfin.com/CA/Los-Gatos/16743-Hicks-Rd-95032/home/917897,,,N,Y,37.2259224,-121.9078193
PAST SALE,July-1-2021,Townhouse,1596 Camden Village Cir,SAN JOSE,CA,95124,1110000,3,2.5,SAN JOSE,1539,1807,1982,161,721,260,Sold,,,https://www.redfin.com/CA/San-Jose/1596-Camden-Village-Cir-95124/home/1262004,MLSListings,ML81844774,N,Y,37.233038,-121.9030736
PAST SALE,December-10-2020,Single Family Residential,3404 May Ln,SAN JOSE,CA,95124,1275000,4,2.0,SAN JOSE,1300,9540,1959,364,981,,Sold,,,https://www.redfin.com/CA/San-Jose/3404-May-Ln-95124/home/1203641,MLSListings,ML81817519,N,Y,37.2636385,-121.938845
PAST SALE,November-3-2021,Single Family Residential,14520 Charmeran Ave,SAN JOSE,CA,95124,2725000,5,3.0,SAN JOSE,2485,9145,1950,36,1097,,Sold,,,https://www.redfin.com/CA/San-Jose/14520-Charmeran-Ave-95124/home/1675734,MLSListings,ML81865720,N,Y,37.2580647,-121.9227109
PAST SALE,April-10-2017,Single Family Residential,5158 Alan Ave,SAN JOSE,CA,95124,1336000,4,3.0,SAN JOSE,1957,6060,1957,1704,683,,Sold,,,https://www.redfin.com/CA/San-Jose/5158-Alan-Ave-95124/home/1241569,MLSListings,ML81640129,N,Y,37.2447481,-121.9079749
PAST SALE,July-18-2019,Single Family Residential,5198 Alan Ave,SAN JOSE,CA,95124,1300000,4,2.0,SAN JOSE,1488,10614,1957,875,874,,Sold,,,https://www.redfin.com/CA/San-Jose/5198-Alan-Ave-95124/home/917812,MLSListings,ML81754652,N,Y,37.2437647,-121.9075526
PAST SALE,March-29-2017,Single Family Residential,2924 Rustic Dr,SAN JOSE,CA,95124,1257750,3,2.5,SAN JOSE,2046,5900,1957,1716,615,,Sold,,,https://www.redfin.com/CA/San-Jose/2924-Rustic-Dr-95124/home/553461,MLSListings,ML81640559,N,Y,37.2678092,-121.9239555
PAST SALE,March-13-2018,Single Family Residential,1665 Nora Way,SAN JOSE,CA,95124,1365000,3,2.0,SAN JOSE,1772,6943,1962,1367,770,,Sold,,,https://www.redfin.com/CA/San-Jose/1665-Nora-Way-95124/home/1544421,MLSListings,ML81690666,N,Y,37.2434842,-121.907108
PAST SALE,October-17-2017,Single Family Residential,5241 Rafton Dr,SAN JOSE,CA,95124,1551121,4,2.5,SAN JOSE,1958,8400,1969,1514,792,,Sold,,,https://www.redfin.com/CA/San-Jose/5241-Rafton-Dr-95124/home/1360130,MLSListings,ML81676494,N,Y,37.2425807,-121.9092419
PAST SALE,November-19-2018,Single Family Residential,223 Danville Dr,LOS GATOS,CA,95032,1720000,3,2.0,LOS GATOS,1709,8000,1962,1116,1006,,Sold,,,https://www.redfin.com/CA/Los-Gatos/223-Danville-Dr-95032/home/911529,MLSListings,ML81726696,N,Y,37.238255,-121.9344339
PAST SALE,September-8-2021,Single Family Residential,4916 Esther Dr,SAN JOSE,CA,95124,1720000,3,2.0,SAN JOSE,1200,6734,1955,92,1433,,Sold,,,https://www.redfin.com/CA/San-Jose/4916-Esther-Dr-95124/home/1816641,MLSListings,ML81851748,N,Y,37.2479221,-121.9350672
PAST SALE,November-6-2020,Single Family Residential,1663 York St,SAN JOSE,CA,95124,1105000,2,1.0,SAN JOSE,1172,6264,1962,398,943,,Sold,,,https://www.redfin.com/CA/San-Jose/1663-York-St-95124/home/1058205,MLSListings,ML81812908,N,Y,37.2662894,-121.9074637
PAST SALE,May-10-2017,Single Family Residential,1779 Foxworthy Ave,SAN JOSE,CA,95124,908000,4,3.0,SAN JOSE,1607,6635,1954,1674,565,,Sold,,,https://www.redfin.com/CA/San-Jose/1779-Foxworthy-Ave-95124/home/852726,MLSListings,ML81645217,N,Y,37.268391,-121.9153765
PAST SALE,December-11-2018,Single Family Residential,5205 Rafton Dr,SAN JOSE,CA,95124,1540000,4,2.5,SAN JOSE,1958,7800,1969,1094,787,,Sold,,,https://www.redfin.com/CA/San-Jose/5205-Rafton-Dr-95124/home/916948,MLSListings,ML81730630,N,Y,37.2433356,-121.9091085
PAST SALE,November-15-2018,Single Family Residential,5177 Alan Ave,SAN JOSE,CA,95124,1360000,4,2.0,SAN JOSE,1876,6389,1957,1120,725,,Sold,,,https://www.redfin.com/CA/San-Jose/5177-Alan-Ave-95124/home/1605473,MLSListings,ML81725484,N,Y,37.2441413,-121.9082417
PAST SALE,April-15-2021,Single Family Residential,116 Sharon Ct,LOS GATOS,CA,95032,2480000,4,2.0,LOS GATOS,1916,8069,1965,238,1294,,Sold,,,https://www.redfin.com/CA/Los-Gatos/116-Sharon-Ct-95032/home/890107,MLSListings,ML81830767,N,Y,37.2370927,-121.9404345
PAST SALE,May-11-2020,Single Family Residential,4956 Rafton Dr,SAN JOSE,CA,95124,1360000,3,2.0,SAN JOSE,1341,6075,1956,577,1014,,Sold,,,https://www.redfin.com/CA/San-Jose/4956-Rafton-Dr-95124/home/1267482,MLSListings,ML81789097,N,Y,37.2478017,-121.9111534
PAST SALE,March-10-2021,Single Family Residential,4975 Gattucio Dr,SAN JOSE,CA,95124,1400000,3,2.0,SAN JOSE,1236,5895,1956,274,1133,,Sold,,,https://www.redfin.com/CA/San-Jose/4975-Gattucio-Dr-95124/home/737003,MLSListings,ML81828522,N,Y,37.247318,-121.912465
PAST SALE,,Single Family Residential,2182 Nimrick Ln,San Jose,CA,95124,1630000,4,3.0,,1700,23367,1963,,959,,,,,https://www.redfin.com/CA/San-Jose/2182-Nimrick-Ln-95124/home/1238290,,,N,Y,37.2366056,-121.9374228
PAST SALE,May-4-2018,Single Family Residential,14892 Sutton Dr,SAN JOSE,CA,95124,1650000,4,2.0,SAN JOSE,2220,11111,1950,1315,743,,Sold,,,https://www.redfin.com/CA/San-Jose/14892-Sutton-Dr-95124/home/1517517,MLSListings,ML81695484,N,Y,37.2523169,-121.9181103
PAST SALE,,Single Family Residential,3388 New Jersey Ave,San Jose,CA,95124,1910000,4,3.0,,1955,8795,1967,,977,,,,,https://www.redfin.com/CA/San-Jose/3388-New-Jersey-Ave-95124/home/1203663,,,N,Y,37.2636767,-121.9250667
PAST SALE,July-24-2020,Single Family Residential,4980 Harwood Rd,SAN JOSE,CA,95124,1420000,4,2.0,SAN JOSE,1404,6243,1956,503,1011,,Sold,,,https://www.redfin.com/CA/San-Jose/4980-Harwood-Rd-95124/home/1168842,MLSListings,ML81796345,N,Y,37.2471953,-121.9127982
PAST SALE,August-22-2019,Single Family Residential,2317 Mount Davidson Dr,SAN JOSE,CA,95124,1001000,3,2.5,SAN JOSE,1530,3062,1979,840,654,,Sold,,,https://www.redfin.com/CA/San-Jose/2317-Mt-Davidson-Dr-95124/home/828131,MLSListings,ML81763372,N,Y,37.2627361,-121.9422559
PAST SALE,June-28-2017,Single Family Residential,2311 Mount Davidson Dr,SAN JOSE,CA,95124,1140000,4,2.5,SAN JOSE,1970,3005,1979,1625,579,,Sold,,,https://www.redfin.com/CA/San-Jose/2311-Mt-Davidson-Dr-95124/home/1637096,MLSListings,ML81652895,N,Y,37.2627391,-121.9420893
PAST SALE,October-27-2020,Single Family Residential,1741 Coralee Dr,SAN JOSE,CA,95124,1300000,4,2.0,SAN JOSE,1374,6000,1956,408,946,,Sold,,,https://www.redfin.com/CA/San-Jose/1741-Coralee-Dr-95124/home/1348442,MLSListings,ML81808618,N,Y,37.2491032,-121.9127093
PAST SALE,August-2-2019,Single Family Residential,2176 Blossom Crest Way,SAN JOSE,CA,95124,1822000,4,2.0,SAN JOSE,1870,8369,1960,860,974,,Sold,,,https://www.redfin.com/CA/San-Jose/2176-Blossom-Crest-Way-95124/home/1823759,MLSListings,ML81752913,N,Y,37.2370462,-121.9373339
PAST SALE,October-2-2017,Single Family Residential,4880 Leigh Ave,SAN JOSE,CA,95124,1230000,3,2.0,SAN JOSE,1195,5974,1958,1529,1029,,Sold,,,https://www.redfin.com/CA/San-Jose/4880-Leigh-Ave-95124/home/1765747,MLSListings,ML81675834,N,Y,37.2490882,-121.9219108
PAST SALE,April-1-2020,Single Family Residential,2269 Samaritan Dr,SAN JOSE,CA,95124,1510000,3,3.0,SAN JOSE,2079,5308,2007,617,726,140,Sold,,,https://www.redfin.com/CA/San-Jose/2269-Samaritan-Dr-95124/home/17291724,MLSListings,ML81782118,N,Y,37.2508368,-121.9402671
PAST SALE,June-7-2019,Single Family Residential,2146 Barrett Ave,SAN JOSE,CA,95124,1591000,4,2.0,SAN JOSE,1800,7493,1961,916,884,,Sold,,,https://www.redfin.com/CA/San-Jose/2146-Barrett-Ave-95124/home/862143,MLSListings,ML81747260,N,Y,37.2552755,-121.9361339
PAST SALE,April-17-2018,Single Family Residential,1665 Klipspringer Dr,SAN JOSE,CA,95124,1651000,4,3.0,SAN JOSE,1910,3840,1992,1332,864,,Sold,,,https://www.redfin.com/CA/San-Jose/1665-Klipspringer-Dr-95124/home/1204368,MLSListings,ML81696883,N,Y,37.2542965,-121.9049297
PAST SALE,August-22-2019,Townhouse,1658 Northpole Pl #1,SAN JOSE,CA,95124,1050000,4,4.0,SAN JOSE,1879,2179,2013,840,559,234,Sold,,,https://www.redfin.com/CA/San-Jose/1658-N-Pole-Pl-95124/unit-1/home/95954318,MLSListings,ML81752064,N,Y,37.2688543,-121.9068784
PAST SALE,November-24-2020,Single Family Residential,2108 Rosswood Dr,SAN JOSE,CA,95124,1332000,3,2.0,SAN JOSE,1288,6265,1956,380,1034,,Sold,,,https://www.redfin.com/CA/San-Jose/2108-Rosswood-Dr-95124/home/1066886,MLSListings,ML81816101,N,Y,37.2442973,-121.9351117
PAST SALE,August-5-2021,Single Family Residential,15077 Bel Estos Dr,SAN JOSE,CA,95124,2310000,6,4.0,SAN JOSE,3559,12983,1952,126,649,,Sold,,,https://www.redfin.com/CA/San-Jose/15077-Bel-Estos-Dr-95124/home/834355,MLSListings,ML81846764,N,Y,37.2495652,-121.9343561
PAST SALE,May-21-2019,Single Family Residential,5473 Muir Dr,San Jose,CA,95124,1478000,3,2.0,San Jose,2311,7800,1959,933,640,,Sold,,,https://www.redfin.com/CA/San-Jose/5473-Muir-Dr-95124/home/587067,"bridgeMLS, Bay East AOR, or Contra Costa AOR",40856069,N,Y,37.2385123,-121.9101977
PAST SALE,May-31-2019,Single Family Residential,1818 Lencar Way,SAN JOSE,CA,95124,1313000,3,2.0,SAN JOSE,1200,6216,1959,923,1094,,Sold,,,https://www.redfin.com/CA/San-Jose/1818-Lencar-Way-95124/home/1664089,MLSListings,ML81749418,N,Y,37.2552754,-121.9174658
PAST SALE,November-6-2020,Single Family Residential,3334 Todd Way,SAN JOSE,CA,95124,1496000,4,2.0,SAN JOSE,1565,7447,1966,398,956,,Sold,,,https://www.redfin.com/CA/San-Jose/3334-Todd-Way-95124/home/1245038,MLSListings,ML81812270,N,Y,37.2641887,-121.923111
PAST SALE,September-20-2019,Single Family Residential,4116 Jan Way,SAN JOSE,CA,95124,1128000,3,2.0,SAN JOSE,1270,7155,1957,811,888,,Sold,,,https://www.redfin.com/CA/San-Jose/4116-Jan-Way-95124/home/832091,MLSListings,ML81765291,N,Y,37.2574349,-121.9145319
PAST SALE,February-17-2017,Single Family Residential,5481 Blossom Vista Ave,SAN JOSE,CA,95124,1423000,4,3.0,SAN JOSE,1800,6715,1960,1756,791,,Sold,,,https://www.redfin.com/CA/San-Jose/5481-Blossom-Vista-Ave-95124/home/911544,MLSListings,ML81637958,N,Y,37.2385281,-121.9392894
PAST SALE,July-14-2017,Single Family Residential,1788 Cardel Way,SAN JOSE,CA,95124,1265000,3,2.0,SAN JOSE,1570,6000,1963,1609,806,,Sold,,,https://www.redfin.com/CA/San-Jose/1788-Cardel-Way-95124/home/1419139,MLSListings,ML81655418,N,Y,37.2441096,-121.915621
PAST SALE,January-29-2019,Single Family Residential,14521 Weeth Dr,SAN JOSE,CA,95124,2250000,5,5.5,SAN JOSE,5100,17859,2018,1045,441,,Sold,,,https://www.redfin.com/CA/San-Jose/14521-Weeth-Dr-95124/home/830441,MLSListings,ML81723995,N,Y,37.2608063,-121.9226506
PAST SALE,October-22-2021,Single Family Residential,2880 Via Carmen,SAN JOSE,CA,95124,1600000,3,2.0,SAN JOSE,1506,7045,1959,48,1062,,Sold,,,https://www.redfin.com/CA/San-Jose/2880-Via-Carmen-95124/home/1839105,MLSListings,ML81862877,N,Y,37.2691141,-121.9348895
PAST SALE,October-22-2021,Single Family Residential,3856 Arbuckle Dr,SAN JOSE,CA,95124,1227500,3,1.0,SAN JOSE,1102,6390,1958,48,1114,,Sold,,,https://www.redfin.com/CA/San-Jose/3856-Arbuckle-Dr-95124/home/830493,MLSListings,ML81863102,N,Y,37.2596419,-121.9207774
PAST SALE,October-20-2021,Single Family Residential,15220 Winton Way,SAN JOSE,CA,95124,1960000,3,2.0,SAN JOSE,1206,8180,1954,50,1625,,Sold,,,https://www.redfin.com/CA/San-Jose/15220-Winton-Way-95124/home/836996,MLSListings,ML81864038,N,Y,37.2473821,-121.9413115
PAST SALE,October-6-2021,Single Family Residential,1621 Noreen Dr,SAN JOSE,CA,95124,1900000,4,2.5,SAN JOSE,1760,6031,1964,64,1080,,Sold,,,https://www.redfin.com/CA/San-Jose/1621-Noreen-Dr-95124/home/857643,MLSListings,ML81861225,N,Y,37.2615766,-121.9038627
PAST SALE,January-8-2019,Single Family Residential,1697 Don Ave,SAN JOSE,CA,95124,1525000,4,2.5,SAN JOSE,2191,6720,1963,1066,696,,Sold,,,https://www.redfin.com/CA/San-Jose/1697-Don-Ave-95124/home/1204319,MLSListings,ML81733135,N,Y,37.2706144,-121.9102866
PAST SALE,April-9-2021,Single Family Residential,14630 Wyrick Ave,SAN JOSE,CA,95124,3425000,6,6.5,SAN JOSE,4658,14391,2021,244,735,,Sold,,,https://www.redfin.com/CA/San-Jose/14630-Wyrick-Ave-95124/home/612307,MLSListings,ML81831277,N,Y,37.2561099,-121.9233332
PAST SALE,October-7-2021,Single Family Residential,3472 Calvin Ave,SAN JOSE,CA,95124,1385000,3,2.0,SAN JOSE,1527,6237,1959,63,907,,Sold,,,https://www.redfin.com/CA/San-Jose/3472-Calvin-Ave-95124/home/1201797,MLSListings,ML81857499,N,Y,37.2626569,-121.9397338
PAST SALE,April-2-2019,Single Family Residential,14907 Donner Dr,SAN JOSE,CA,95124,2501000,4,3.5,SAN JOSE,3471,9424,2004,982,721,,Sold,,,https://www.redfin.com/CA/San-Jose/14907-Donner-Dr-95124/home/1861809,MLSListings,ML81740645,N,Y,37.2521023,-121.9292893
PAST SALE,April-2-2021,Single Family Residential,15199 Cooper Ave,SAN JOSE,CA,95124,2525000,3,2.5,SAN JOSE,2545,8365,1953,251,992,,Sold,,,https://www.redfin.com/CA/San-Jose/15199-Cooper-Ave-95124/home/1727886,MLSListings,ML81831528,N,Y,37.2477049,-121.9387339
PAST SALE,April-13-2018,Single Family Residential,4934 Bel Escou Dr,SAN JOSE,CA,95124,1650000,3,2.0,SAN JOSE,1568,8653,1955,1336,1052,,Sold,,,https://www.redfin.com/CA/San-Jose/4934-Bel-Escou-Dr-95124/home/1384314,MLSListings,ML81696522,N,Y,37.2475737,-121.9321561
PAST SALE,November-1-2019,Single Family Residential,1943 Laurinda Dr,SAN JOSE,CA,95124,1100000,3,2.0,SAN JOSE,1463,6241,1958,769,752,,Sold,,,https://www.redfin.com/CA/San-Jose/1943-Laurinda-Dr-95124/home/1727716,MLSListings,ML81754400,N,Y,37.2462285,-121.9268002
PAST SALE,,Single Family Residential,5571 Mary Jo Way,San Jose,CA,95124,513500,3,2.0,,1057,6227,1964,,486,,,,,https://www.redfin.com/CA/San-Jose/5571-Mary-Jo-Way-95124/home/1060213,,,N,Y,37.2367982,-121.9169768
PAST SALE,September-23-2020,Single Family Residential,4995 Kenson Dr,SAN JOSE,CA,95124,1315000,3,2.0,SAN JOSE,1233,8150,1958,442,1067,,Sold,,,https://www.redfin.com/CA/San-Jose/4995-Kenson-Dr-95124/home/599373,MLSListings,ML81806114,N,Y,37.2467978,-121.9279114
PAST SALE,April-2-2019,Single Family Residential,4879 Leigh Ave,SAN JOSE,CA,95124,1275000,3,2.0,SAN JOSE,1430,6324,1966,982,892,,Sold,,,https://www.redfin.com/CA/San-Jose/4879-Leigh-Ave-95124/home/1689780,MLSListings,ML81739421,N,Y,37.2491769,-121.9225554
PAST SALE,October-8-2021,Single Family Residential,1851 Kirkmont Dr,SAN JOSE,CA,95124,2367000,4,3.0,SAN JOSE,2428,7713,1968,62,975,,Sold,,,https://www.redfin.com/CA/San-Jose/1851-Kirkmont-Dr-95124/home/1428126,MLSListings,ML81861516,N,Y,37.283465,-121.9205996
PAST SALE,September-7-2018,Single Family Residential,4875 Tilden Dr,SAN JOSE,CA,95124,1350000,3,2.0,SAN JOSE,1430,6060,1966,1189,944,,Sold,,,https://www.redfin.com/CA/San-Jose/4875-Tilden-Dr-95124/home/848657,MLSListings,ML81716661,N,Y,37.2494489,-121.9234666
PAST SALE,September-1-2020,Single Family Residential,4906 Tilden Dr,SAN JOSE,CA,95124,1450000,3,2.0,SAN JOSE,1400,6324,1956,464,1036,,Sold,,,https://www.redfin.com/CA/San-Jose/4906-Tilden-Dr-95124/home/1778856,MLSListings,ML81802317,N,Y,37.2488456,-121.9228443
PAST SALE,October-11-2019,Single Family Residential,4889 Leigh Ave,SAN JOSE,CA,95124,1190000,4,2.0,SAN JOSE,1622,6363,1966,790,734,,Sold,,,https://www.redfin.com/CA/San-Jose/4889-Leigh-Ave-95124/home/1839134,MLSListings,ML81767218,N,Y,37.2490264,-121.9225554
PAST SALE,October-22-2018,Single Family Residential,2375 Starbright Dr,SAN JOSE,CA,95124,1253000,4,2.0,SAN JOSE,1562,6237,1959,1144,802,,Sold,,,https://www.redfin.com/CA/San-Jose/2375-Starbright-Dr-95124/home/835742,MLSListings,ML81724424,N,Y,37.2596292,-121.9448668
PAST SALE,November-23-2020,Single Family Residential,5195 Selinda Way,LOS GATOS,CA,95032,2150000,4,3.0,LOS GATOS,2499,6597,1981,381,860,,Sold,,,https://www.redfin.com/CA/Los-Gatos/5195-Selinda-Way-95032/home/1235461,MLSListings,ML81816056,N,Y,37.2437395,-121.9186149
PAST SALE,February-20-2020,Single Family Residential,15340 Charmeran Ave,SAN JOSE,CA,95124,1680000,4,3.0,SAN JOSE,2357,7900,1949,658,713,,Sold,,,https://www.redfin.com/CA/San-Jose/15340-Charmeran-Ave-95124/home/1754337,MLSListings,ML81783413,N,Y,37.2563056,-121.9374006
PAST SALE,April-2-2018,Single Family Residential,3701 Woodard Ct,SAN JOSE,CA,95124,1600000,5,3.5,SAN JOSE,2566,4836,2005,1347,624,90,Sold,,,https://www.redfin.com/CA/San-Jose/3701-Woodard-Ct-95124/home/1708536,MLSListings,ML81694126,N,Y,37.260019,-121.9447738
PAST SALE,January-19-2021,Single Family Residential,15400 Charmeran Ave,SAN JOSE,CA,95124,1375000,3,1.0,SAN JOSE,1101,7833,1949,324,1249,,Sold,,,https://www.redfin.com/CA/San-Jose/15400-Charmeran-Ave-95124/home/1616712,MLSListings,ML81823407,N,Y,37.2563577,-121.9386672
PAST SALE,December-29-2020,Single Family Residential,15360 Charmeran Ave,SAN JOSE,CA,95124,1350000,3,2.0,SAN JOSE,1350,8058,1949,345,1000,,Sold,,,https://www.redfin.com/CA/San-Jose/15360-Charmeran-Ave-95124/home/1066846,MLSListings,ML81817357,N,Y,37.2563347,-121.9378672
PAST SALE,October-16-2017,Single Family Residential,15065 Nadine Ct,SAN JOSE,CA,95124,1625000,4,3.0,SAN JOSE,1932,9030,1955,1515,841,,Sold,,,https://www.redfin.com/CA/San-Jose/15065-Nadine-Ct-95124/home/984752,MLSListings,ML81675738,N,Y,37.2496294,-121.9328894
PAST SALE,June-25-2019,Single Family Residential,15073 Nadine Ct,SAN JOSE,CA,95124,1250000,3,1.5,SAN JOSE,1104,8829,1954,898,1132,,Sold,,,https://www.redfin.com/CA/San-Jose/15073-Nadine-Ct-95124/home/1551141,MLSListings,ML81753659,N,Y,37.2495857,-121.9332228
PAST SALE,April-11-2017,Single Family Residential,14621 Union Ave,SAN JOSE,CA,95124,950000,2,1.0,SAN JOSE,948,8083,1949,1703,1002,,Sold,,,https://www.redfin.com/CA/San-Jose/14621-Union-Ave-95124/home/833559,MLSListings,ML81637992,N,Y,37.2562099,-121.9316449
PAST SALE,April-14-2017,Single Family Residential,4818 Pepperwood Way,SAN JOSE,CA,95124,1150000,4,2.0,SAN JOSE,1502,8820,1960,1700,766,,Sold,,,https://www.redfin.com/CA/San-Jose/4818-Pepperwood-Way-95124/home/714831,MLSListings,ML81642501,N,Y,37.2495542,-121.9164944
PAST SALE,April-2-2021,Single Family Residential,2012 Barrett Ave,SAN JOSE,CA,95124,1880000,4,2.0,SAN JOSE,1698,6076,1961,251,1107,,Sold,,,https://www.redfin.com/CA/San-Jose/2012-Barrett-Ave-95124/home/836102,MLSListings,ML81829021,N,Y,37.2556344,-121.93182
PAST SALE,February-28-2017,Single Family Residential,2011 Barrett Ave,SAN JOSE,CA,95124,1050003,3,2.0,SAN JOSE,1222,5978,1960,1745,859,,Sold,,,https://www.redfin.com/CA/San-Jose/2011-Barrett-Ave-95124/home/836104,MLSListings,ML81636539,N,Y,37.256006,-121.9318227
PAST SALE,July-10-2018,Single Family Residential,2033 Barrett Ave,SAN JOSE,CA,95124,1670000,4,3.0,SAN JOSE,2125,5978,1960,1248,786,,Sold,,,https://www.redfin.com/CA/San-Jose/2033-Barrett-Ave-95124/home/835027,MLSListings,ML81704836,N,Y,37.2559903,-121.9326894
PAST SALE,August-28-2020,Single Family Residential,4592 Brunswick Ave,SAN JOSE,CA,95124,1455000,3,2.0,SAN JOSE,1361,6302,1965,468,1069,,Sold,,,https://www.redfin.com/CA/San-Jose/4592-Brunswick-Ave-95124/home/835029,MLSListings,ML81801794,N,Y,37.2543921,-121.9392005
PAST SALE,July-30-2021,Single Family Residential,4547 Tomrick Ave,SAN JOSE,CA,95124,1650000,4,2.0,SAN JOSE,1457,6157,1965,132,1132,,Sold,,,https://www.redfin.com/CA/San-Jose/4547-Tomrick-Ave-95124/home/773529,MLSListings,ML81850295,N,Y,37.2547112,-121.9388894
PAST SALE,May-26-2017,Single Family Residential,3313 Hilary Dr,SAN JOSE,CA,95124,1060000,3,2.0,SAN JOSE,1206,5760,1955,1658,879,,Sold,,,https://www.redfin.com/CA/San-Jose/3313-Hilary-Dr-95124/home/973530,MLSListings,ML81648639,N,Y,37.2644521,-121.9265558
PAST SALE,,Single Family Residential,3122 Hilary Dr,San Jose,CA,95124,880000,3,1.0,,984,6369,1955,,894,,,,,https://www.redfin.com/CA/San-Jose/3122-Hilary-Dr-95124/home/827627,,,N,Y,37.2660803,-121.9259557
PAST SALE,April-5-2019,Single Family Residential,4004 Jan Way,SAN JOSE,CA,95124,1160000,3,2.0,SAN JOSE,1270,7670,1957,979,913,,Sold,,,https://www.redfin.com/CA/San-Jose/4004-Jan-Way-95124/home/1314872,MLSListings,ML81740269,N,Y,37.2584762,-121.9151987
PAST SALE,July-22-2021,Single Family Residential,4620 Jacksol Dr,SAN JOSE,CA,95124,1700000,3,2.5,SAN JOSE,1438,4435,1993,140,1182,,Sold,,,https://www.redfin.com/CA/San-Jose/4620-Jacksol-Dr-95124/home/837606,MLSListings,ML81848507,N,Y,37.2532709,-121.9401782
PAST SALE,December-5-2017,Townhouse,2121 Santoro Ln,SAN JOSE,CA,95124,1050000,3,2.5,SAN JOSE,1524,2740,2007,1465,689,253,Sold,,,https://www.redfin.com/CA/San-Jose/2121-Santoro-Ln-95124/home/17288462,MLSListings,ML81683351,N,Y,37.2512074,-121.9360705
PAST SALE,November-9-2020,Townhouse,2108 Mendocino Ln,SAN JOSE,CA,95124,1180000,3,2.5,SAN JOSE,1535,1098,2007,395,769,260,Sold,,,https://www.redfin.com/CA/San-Jose/2108-Mendocino-Ln-95124/home/17290588,MLSListings,ML81814547,N,Y,37.2510336,-121.9359962
PAST SALE,August-4-2017,Townhouse,2096 Mendocino Ln,SAN JOSE,CA,95124,832000,2,2.0,SAN JOSE,1396,1698,2007,1588,596,229,Sold,,,https://www.redfin.com/CA/San-Jose/2096-Mendocino-Ln-95124/home/23043329,MLSListings,ML81637792,N,Y,37.2509724,-121.9358042
PAST SALE,November-21-2020,Townhouse,2217 Santoro Ln,SAN JOSE,CA,95124,1169050,3,2.5,SAN JOSE,1535,1107,2007,383,762,260,Sold,,,https://www.redfin.com/CA/San-Jose/2217-Santoro-Ln-95124/home/17290907,MLSListings,ML81821103,N,Y,37.2512154,-121.9372209
PAST SALE,May-10-2017,Single Family Residential,2944 Quinto Way,SAN JOSE,CA,95124,940675,3,2.0,SAN JOSE,1136,5225,1954,1674,828,,Sold,,,https://www.redfin.com/CA/San-Jose/2944-Quinto-Way-95124/home/1617136,MLSListings,ML81644778,N,Y,37.2692634,-121.9149764
PAST SALE,October-15-2020,Townhouse,2280 Wine Maker Way,SAN JOSE,CA,95124,731700,2,2.0,SAN JOSE,1052,568,1985,420,696,291,Sold,,,https://www.redfin.com/CA/San-Jose/2280-Wine-Maker-Way-95124/home/1251772,MLSListings,ML81809176,N,Y,37.2637247,-121.9425542
PAST SALE,May-2-2018,Single Family Residential,1618 Orchard View Dr,SAN JOSE,CA,95124,1360000,3,2.0,SAN JOSE,1243,6388,1959,1317,1094,,Sold,,,https://www.redfin.com/CA/San-Jose/1618-Orchard-View-Dr-95124/home/1196410,MLSListings,ML81699410,N,Y,37.2342953,-121.9046852
PAST SALE,October-13-2017,Single Family Residential,3163 Taper Ave,SAN JOSE,CA,95124,940000,3,1.0,SAN JOSE,984,6386,1956,1518,955,,Sold,,,https://www.redfin.com/CA/San-Jose/3163-Taper-Ave-95124/home/1370828,MLSListings,ML81679318,N,Y,37.2657503,-121.9282448
PAST SALE,July-10-2017,Single Family Residential,1910 Foxworthy Ave,SAN JOSE,CA,95124,842000,4,3.0,SAN JOSE,1700,6100,1956,1613,495,,Sold,,,https://www.redfin.com/CA/San-Jose/1910-Foxworthy-Ave-95124/home/1308958,MLSListings,ML81656554,N,Y,37.2670885,-121.9249778
PAST SALE,July-24-2018,Townhouse,2060 Mendocino Ln,SAN JOSE,CA,95124,1096000,3,2.5,SAN JOSE,1535,1136,2007,1234,714,253,Sold,,,https://www.redfin.com/CA/San-Jose/2060-Mendocino-Ln-95124/home/17971727,MLSListings,ML81704901,N,Y,37.251036,-121.935155
PAST SALE,May-21-2021,Single Family Residential,1997 Borchers Dr,SAN JOSE,CA,95124,1995000,4,3.5,SAN JOSE,2886,10232,1958,202,691,,Sold,,,https://www.redfin.com/CA/San-Jose/1997-Borchers-Dr-95124/home/1550984,MLSListings,ML81837390,N,Y,37.2696495,-121.9302893
PAST SALE,,Single Family Residential,1788 Marcy Lynn Ct,San Jose,CA,95124,1248000,3,2.5,,1898,5304,1976,,658,,,,,https://www.redfin.com/CA/San-Jose/1788-Marcy-Lynn-Ct-95124/home/1269618,,,N,Y,37.2446451,-121.9123315
PAST SALE,November-30-2021,Single Family Residential,4204 Leigh Ave,SAN JOSE,CA,95124,1287500,3,1.0,SAN JOSE,1012,5643,1959,9,1272,,Sold,,,https://www.redfin.com/CA/San-Jose/4204-Leigh-Ave-95124/home/831820,MLSListings,ML81867063,N,Y,37.2565198,-121.9214663
PAST SALE,April-28-2017,Single Family Residential,1827 Gunston Way,SAN JOSE,CA,95124,1042500,4,3.0,SAN JOSE,1781,5900,1955,1686,585,,Sold,,,https://www.redfin.com/CA/San-Jose/1827-Gunston-Way-95124/home/1366415,MLSListings,ML81644037,N,Y,37.2549904,-121.918666
PAST SALE,July-31-2020,Single Family Residential,5004 Agape Ct,SAN JOSE,CA,95124,1110000,3,2.5,SAN JOSE,1644,2332,1996,496,675,43,Sold,,,https://www.redfin.com/CA/San-Jose/5004-Agape-Ct-95124/home/927161,MLSListings,ML81798259,N,Y,37.2484195,-121.9074637
PAST SALE,November-26-2018,Single Family Residential,15105 Esther Dr,SAN JOSE,CA,95124,1200000,2,1.0,SAN JOSE,800,9375,1949,1109,1500,,Sold,,,https://www.redfin.com/CA/San-Jose/15105-Esther-Dr-95124/home/984775,MLSListings,ML81727128,N,Y,37.2491562,-121.9354672
PAST SALE,December-14-2020,Single Family Residential,2602 Meridian Ave,SAN JOSE,CA,95124,1115000,3,2.0,SAN JOSE,1296,6502,1961,360,860,,Sold,,,https://www.redfin.com/CA/San-Jose/2602-Meridian-Ave-95124/home/735132,MLSListings,ML81819184,N,Y,37.2762767,-121.909153
PAST SALE,March-17-2020,Single Family Residential,5469 Harlow Way,SAN JOSE,CA,95124,1035000,3,2.0,SAN JOSE,1066,6003,1959,632,971,,Sold,,,https://www.redfin.com/CA/San-Jose/5469-Harlow-Way-95124/home/1091060,MLSListings,ML81782636,N,Y,37.2385592,-121.9159989
PAST SALE,,Single Family Residential,2302 Constitution Dr,San Jose,CA,95124,2425000,4,3.0,,2392,8055,1965,,1014,,,,,https://www.redfin.com/CA/San-Jose/2302-Constitution-Dr-95124/home/570657,,,N,Y,37.2808254,-121.9141096
PAST SALE,,Single Family Residential,1620 Inverness Cir,San Jose,CA,95124,1250000,4,3.0,,1798,5981,1964,,695,,,,,https://www.redfin.com/CA/San-Jose/1620-Inverness-Cir-95124/home/1756691,,,N,Y,37.255645,-121.901751
PAST SALE,September-24-2021,Single Family Residential,4636 Salina Dr,SAN JOSE,CA,95124,1640000,3,2.5,SAN JOSE,1438,4413,1993,76,1140,,Sold,,,https://www.redfin.com/CA/San-Jose/4636-Salina-Dr-95124/home/1756086,MLSListings,ML81859380,N,Y,37.2532357,-121.9393561
PAST SALE,May-18-2017,Single Family Residential,1971 Elden Dr,SAN JOSE,CA,95124,1210000,4,2.0,SAN JOSE,1760,6100,1965,1666,688,,Sold,,,https://www.redfin.com/CA/San-Jose/1971-Elden-Dr-95124/home/1098389,MLSListings,ML81648534,N,Y,37.2758536,-121.9296671
PAST SALE,September-27-2018,Single Family Residential,1971 Kirby Way,SAN JOSE,CA,95124,1238000,3,2.0,SAN JOSE,1523,7008,1958,1169,813,,Sold,,,https://www.redfin.com/CA/San-Jose/1971-Kirby-Way-95124/home/1466919,MLSListings,ML81719946,N,Y,37.2745095,-121.9291337
PAST SALE,November-12-2020,Single Family Residential,1970 Schrader Dr,SAN JOSE,CA,95124,1450000,3,2.0,SAN JOSE,1425,6026,1956,392,1018,,Sold,,,https://www.redfin.com/CA/San-Jose/1970-Schrader-Dr-95124/home/825556,MLSListings,ML81815916,N,Y,37.2746247,-121.9296893
PAST SALE,November-4-2019,Single Family Residential,1972 Elden Dr,SAN JOSE,CA,95124,1265000,4,2.0,SAN JOSE,1760,6774,1965,766,719,,Sold,,,https://www.redfin.com/CA/San-Jose/1972-Elden-Dr-95124/home/1294979,MLSListings,ML81770910,N,Y,37.2754169,-121.929556
PAST SALE,August-7-2020,Single Family Residential,2693 Hocking Way,SAN JOSE,CA,95124,1700000,4,4.0,SAN JOSE,2165,7697,1957,489,785,,Sold,,,https://www.redfin.com/CA/San-Jose/2693-Hocking-Way-95124/home/984510,MLSListings,ML81796422,N,Y,37.272971,-121.9316894
PAST SALE,June-26-2020,Single Family Residential,2674 Hocking Way,SAN JOSE,CA,95124,1381000,3,2.0,SAN JOSE,1408,6646,1957,531,981,,Sold,,,https://www.redfin.com/CA/San-Jose/2674-Hocking-Way-95124/home/1765637,MLSListings,ML81793018,N,Y,37.2733787,-121.9313338
PAST SALE,April-20-2021,Single Family Residential,15191 Winton Way,SAN JOSE,CA,95124,2108000,3,2.0,SAN JOSE,1511,8087,1954,233,1395,,Sold,,,https://www.redfin.com/CA/San-Jose/15191-Winton-Way-95124/home/835922,MLSListings,ML81815293,N,Y,37.247899,-121.9418448
PAST SALE,September-21-2021,Single Family Residential,3419 Kirk Rd,SAN JOSE,CA,95124,1260000,3,2.0,SAN JOSE,1302,6097,1956,79,968,,Sold,,,https://www.redfin.com/CA/San-Jose/3419-Kirk-Rd-95124/home/854477,MLSListings,ML81858719,N,Y,37.2656137,-121.9080861
PAST SALE,September-26-2019,Single Family Residential,4927 Alan Ave,SAN JOSE,CA,95124,1352800,4,2.0,SAN JOSE,1836,6200,1956,805,737,,Sold,,,https://www.redfin.com/CA/San-Jose/4927-Alan-Ave-95124/home/788014,MLSListings,ML81766678,N,Y,37.248502,-121.9112646
PAST SALE,June-18-2019,Single Family Residential,14770 Berry Way,SAN JOSE,CA,95124,1850000,4,3.0,SAN JOSE,2102,9546,1950,905,880,,Sold,,,https://www.redfin.com/CA/San-Jose/14770-Berry-Way-95124/home/832385,MLSListings,ML81747827,N,Y,37.2551856,-121.9272892
PAST SALE,March-30-2020,Single Family Residential,2812 Lantz Ave,SAN JOSE,CA,95124,1480000,3,2.0,SAN JOSE,1826,7021,1960,619,811,,Sold,,,https://www.redfin.com/CA/San-Jose/2812-Lantz-Ave-95124/home/1259871,MLSListings,ML81782295,N,Y,37.2704558,-121.9355561
PAST SALE,March-9-2021,Single Family Residential,2771 Lantz Ave,SAN JOSE,CA,95124,1555000,4,2.0,SAN JOSE,1528,8654,1961,275,1018,,Sold,,,https://www.redfin.com/CA/San-Jose/2771-Lantz-Ave-95124/home/829017,MLSListings,ML81825983,N,Y,37.2718716,-121.9349117
PAST SALE,November-4-2020,Single Family Residential,2804 Lantz Ave,SAN JOSE,CA,95124,1513000,4,2.0,SAN JOSE,1690,7049,1960,400,895,,Sold,,,https://www.redfin.com/CA/San-Jose/2804-Lantz-Ave-95124/home/651060,MLSListings,ML81808981,N,Y,37.2706086,-121.9354228
PAST SALE,June-30-2020,Single Family Residential,2776 Lantz Ave,SAN JOSE,CA,95124,1350000,3,2.0,SAN JOSE,1866,7343,1960,527,723,,Sold,,,https://www.redfin.com/CA/San-Jose/2776-Lantz-Ave-95124/home/1517391,MLSListings,ML81794094,N,Y,37.2713839,-121.934845
PAST SALE,June-30-2021,Single Family Residential,2816 Via Carmen,SAN JOSE,CA,95124,1525000,3,2.0,SAN JOSE,1528,7789,1961,162,998,,Sold,,,https://www.redfin.com/CA/San-Jose/2816-Via-Carmen-95124/home/1551026,MLSListings,ML81845519,N,Y,37.2706828,-121.9341117
PAST SALE,June-29-2017,Single Family Residential,2688 Evora Dr,SAN JOSE,CA,95124,1030000,4,3.0,SAN JOSE,2045,6710,1957,1624,504,,Sold,,,https://www.redfin.com/CA/San-Jose/2688-Evora-Dr-95124/home/1076614,MLSListings,ML81655755,N,Y,37.272514,-121.9272003
PAST SALE,December-27-2019,Single Family Residential,1991 Josephine Ave,SAN JOSE,CA,95124,1375000,5,2.0,SAN JOSE,2006,7083,1957,713,685,,Sold,,,https://www.redfin.com/CA/San-Jose/1991-Josephine-Ave-95124/home/1283038,MLSListings,ML81773266,N,Y,37.2725842,-121.9302227
PAST SALE,August-3-2018,Single Family Residential,1995 Kobara Ln,SAN JOSE,CA,95124,1200000,4,2.0,SAN JOSE,1868,7182,1957,1224,642,,Sold,,,https://www.redfin.com/CA/San-Jose/1995-Kobara-Ln-95124/home/828351,MLSListings,ML81700180,N,Y,37.2715942,-121.9308894
PAST SALE,January-20-2021,Single Family Residential,2720 Evora Dr,SAN JOSE,CA,95124,1600000,4,3.0,SAN JOSE,2168,6710,1958,323,738,,Sold,,,https://www.redfin.com/CA/San-Jose/2720-Evora-Dr-95124/home/828364,MLSListings,ML81823531,N,Y,37.2720664,-121.9270002
PAST SALE,July-6-2017,Single Family Residential,1958 Kobara Ln,SAN JOSE,CA,95124,1300000,4,2.0,SAN JOSE,1744,7150,1958,1617,745,,Sold,,,https://www.redfin.com/CA/San-Jose/1958-Kobara-Ln-95124/home/831064,MLSListings,ML81653808,N,Y,37.2718734,-121.9279559
PAST SALE,April-18-2017,Single Family Residential,1983 Assunta Way,SAN JOSE,CA,95124,1300000,3,2.5,SAN JOSE,1754,7150,1958,1696,741,,Sold,,,https://www.redfin.com/CA/San-Jose/1983-Assunta-Way-95124/home/1333815,MLSListings,ML81643099,N,Y,37.271035,-121.9299338
PAST SALE,May-28-2020,Single Family Residential,1991 Assunta Way,SAN JOSE,CA,95124,1340000,3,2.0,SAN JOSE,1657,7237,1958,560,809,,Sold,,,https://www.redfin.com/CA/San-Jose/1991-Assunta-Way-95124/home/1129541,MLSListings,ML81789568,N,Y,37.2709015,-121.9303782
PAST SALE,July-8-2019,Single Family Residential,1995 Assunta Way,SAN JOSE,CA,95124,1445000,3,2.0,SAN JOSE,1709,7278,1958,885,846,,Sold,,,https://www.redfin.com/CA/San-Jose/1995-Assunta-Way-95124/home/1217748,MLSListings,ML81753189,N,Y,37.2708481,-121.930556
PAST SALE,,Single Family Residential,1969 Minna Way,San Jose,CA,95124,1200000,3,2.0,,1469,7180,1958,,817,,,,,https://www.redfin.com/CA/San-Jose/1969-Minna-Way-95124/home/827343,,,N,Y,37.2689398,-121.9293337
PAST SALE,March-21-2018,Single Family Residential,2676 Evora Dr,SAN JOSE,CA,95124,1725000,4,3.0,SAN JOSE,2101,6590,1957,1359,821,,Sold,,,https://www.redfin.com/CA/San-Jose/2676-Evora-Dr-95124/home/1266693,MLSListings,ML81693165,N,Y,37.2727384,-121.9272669
PAST SALE,August-28-2018,Single Family Residential,2715 New Jersey Ave,SAN JOSE,CA,95124,1488000,3,2.0,SAN JOSE,1887,7515,1957,1199,789,,Sold,,,https://www.redfin.com/CA/San-Jose/2715-New-Jersey-Ave-95124/home/827093,MLSListings,ML81714935,N,Y,37.2722714,-121.9267558
PAST SALE,June-12-2018,Single Family Residential,2871 Nicholas Dr,SAN JOSE,CA,95124,1375000,3,2.0,SAN JOSE,1979,7790,1958,1276,695,,Sold,,,https://www.redfin.com/CA/San-Jose/2871-Nicholas-Dr-95124/home/1765664,MLSListings,ML81702590,N,Y,37.2696883,-121.9309116
PAST SALE,October-12-2020,Single Family Residential,2879 Nicholas Dr,SAN JOSE,CA,95124,1450000,4,3.0,SAN JOSE,2378,8032,1958,423,610,,Sold,,,https://www.redfin.com/CA/San-Jose/2879-Nicholas-Dr-95124/home/840135,MLSListings,ML81806025,N,Y,37.2693122,-121.9309116
PAST SALE,April-20-2021,Single Family Residential,1990 Minna Way,SAN JOSE,CA,95124,1456000,3,2.0,SAN JOSE,1475,7214,1959,233,987,,Sold,,,https://www.redfin.com/CA/San-Jose/1990-Minna-Way-95124/home/1142193,MLSListings,ML81834323,N,Y,37.268446,-121.9302893
PAST SALE,November-9-2017,Single Family Residential,3098 Browning Ave,SAN JOSE,CA,95124,1162000,5,3.0,SAN JOSE,2026,6912,1956,1491,574,,Sold,,,https://www.redfin.com/CA/San-Jose/3098-Browning-Ave-95124/home/1697781,MLSListings,ML81681014,N,Y,37.2662465,-121.9285337
PAST SALE,March-25-2021,Single Family Residential,3291 New Jersey Ave,SAN JOSE,CA,95124,1455880,5,2.0,SAN JOSE,1897,5866,1955,259,767,,Sold,,,https://www.redfin.com/CA/San-Jose/3291-New-Jersey-Ave-95124/home/1259890,MLSListings,ML81829654,N,Y,37.2645564,-121.9256446
PAST SALE,June-25-2019,Single Family Residential,3369 New Jersey Ave,SAN JOSE,CA,95124,1100000,3,2.0,SAN JOSE,1270,5832,1955,898,866,,Sold,,,https://www.redfin.com/CA/San-Jose/3369-New-Jersey-Ave-95124/home/1299329,MLSListings,ML81753221,N,Y,37.2638794,-121.9256446
PAST SALE,June-15-2021,Single Family Residential,3429 New Jersey Ave,SAN JOSE,CA,95124,1600000,3,2.0,SAN JOSE,1300,5824,1955,177,1231,,Sold,,,https://www.redfin.com/CA/San-Jose/3429-New-Jersey-Ave-95124/home/1129482,MLSListings,ML81842569,N,Y,37.2633649,-121.9256668
PAST SALE,October-1-2018,Single Family Residential,4991 Chara Ct,SAN JOSE,CA,95124,1170000,3,2.5,SAN JOSE,1644,3387,1996,1165,712,45,Sold,,,https://www.redfin.com/CA/San-Jose/4991-Chara-Ct-95124/home/1535061,MLSListings,ML81715036,N,Y,37.2484561,-121.9082194
PAST SALE,December-13-2017,Single Family Residential,1975 Kobara Ln,SAN JOSE,CA,95124,1480000,3,3.0,SAN JOSE,2314,7150,1958,1457,640,,Sold,,,https://www.redfin.com/CA/San-Jose/1975-Kobara-Ln-95124/home/1476855,MLSListings,ML81683752,N,Y,37.2719461,-121.9294671
PAST SALE,,Single Family Residential,4859 Little Branham Ln,San Jose,CA,95124,1042000,4,2.0,,1374,6062,1956,,758,,,,,https://www.redfin.com/CA/San-Jose/4859-Little-Branham-Ln-95124/home/653829,,,N,Y,37.2496343,-121.9110645
PAST SALE,June-7-2017,Single Family Residential,5525 Blossom Tree Ln,SAN JOSE,CA,95124,1745000,5,3.0,SAN JOSE,2450,6715,1960,1646,712,,Sold,,,https://www.redfin.com/CA/San-Jose/5525-Blossom-Tree-Ln-95124/home/912031,MLSListings,ML81649853,N,Y,37.2378666,-121.9377339
PAST SALE,February-25-2019,Single Family Residential,4105 Ross Ave,SAN JOSE,CA,95124,1060000,3,2.0,SAN JOSE,1200,7192,1956,1018,883,,Sold,,,https://www.redfin.com/CA/San-Jose/4105-Ross-Ave-95124/home/832081,MLSListings,ML81736347,N,Y,37.257687,-121.913065
PAST SALE,November-6-2017,Single Family Residential,5159 Elrose Ave,SAN JOSE,CA,95124,1585000,4,2.0,SAN JOSE,1900,7100,1968,1494,834,,Sold,,,https://www.redfin.com/CA/San-Jose/5159-Elrose-Ave-95124/home/831974,MLSListings,ML81679711,N,Y,37.2447355,-121.9142874
PAST SALE,August-23-2021,Single Family Residential,1984 Josephine Ave,SAN JOSE,CA,95124,1395000,4,2.0,SAN JOSE,1593,7256,1957,108,876,,Sold,,,https://www.redfin.com/CA/San-Jose/1984-Josephine-Ave-95124/home/626370,MLSListings,ML81853895,N,Y,37.2722336,-121.9295115
PAST SALE,,Single Family Residential,1969 Assunta Way,San Jose,CA,95124,1870000,3,3.0,,1585,7235,1958,,1180,,,,,https://www.redfin.com/CA/San-Jose/1969-Assunta-Way-95124/home/1066708,,,N,Y,37.2713299,-121.9288893
PAST SALE,May-2-2019,Single Family Residential,4909 Alan Ave,SAN JOSE,CA,95124,1330000,4,2.0,SAN JOSE,1374,6067,1956,952,968,,Sold,,,https://www.redfin.com/CA/San-Jose/4909-Alan-Ave-95124/home/1154567,MLSListings,ML81745595,N,Y,37.2489475,-121.911598
PAST SALE,May-22-2018,Single Family Residential,1964 Kobara Ln,SAN JOSE,CA,95124,1386000,3,2.0,SAN JOSE,1380,7224,1957,1297,1004,,Sold,,,https://www.redfin.com/CA/San-Jose/1964-Kobara-Ln-95124/home/1647789,MLSListings,ML81700064,N,Y,37.2716865,-121.9285781
PAST SALE,April-20-2017,Single Family Residential,15035 Carter Ave,SAN JOSE,CA,95118,1465000,3,2.5,SAN JOSE,1974,18285,1960,1694,742,,Sold,,,https://www.redfin.com/CA/San-Jose/15035-Carter-Ave-95118/home/1110168,MLSListings,ML81641730,N,Y,37.2490191,-121.907597
PAST SALE,September-29-2021,Single Family Residential,5347 Alan Ave,SAN JOSE,CA,95124,1602000,3,2.0,SAN JOSE,1208,7150,1960,71,1326,,Sold,,,https://www.redfin.com/CA/San-Jose/5347-Alan-Ave-95124/home/918191,MLSListings,ML81859580,N,Y,37.2412156,-121.9105311
PAST SALE,April-30-2020,Single Family Residential,5321 Taft Dr,SAN JOSE,CA,95124,1785000,3,2.5,SAN JOSE,1529,6614,2015,588,1167,,Sold,,,https://www.redfin.com/CA/San-Jose/5321-Taft-Dr-95124/home/911455,MLSListings,ML81787451,N,Y,37.2412028,-121.9366608
PAST SALE,July-23-2019,Single Family Residential,2889 Lexford Ave,SAN JOSE,CA,95124,1005000,3,2.0,SAN JOSE,1274,5972,1956,870,789,,Sold,,,https://www.redfin.com/CA/San-Jose/2889-Lexford-Ave-95124/home/1816902,MLSListings,ML81743384,N,Y,37.2692285,-121.9189771
PAST SALE,May-31-2019,Single Family Residential,3555 Calvin Ave,SAN JOSE,CA,95124,1430000,4,3.0,SAN JOSE,2017,6270,1959,923,709,,Sold,,,https://www.redfin.com/CA/San-Jose/3555-Calvin-Ave-95124/home/651103,MLSListings,ML81748327,N,Y,37.2618683,-121.940356
PAST SALE,November-23-2021,Single Family Residential,3888 Leigh Ave,SAN JOSE,CA,95124,1650000,4,3.0,SAN JOSE,1765,7454,1958,16,935,,Sold,,,https://www.redfin.com/CA/San-Jose/3888-Leigh-Ave-95124/home/651149,MLSListings,ML81867071,N,Y,37.2593763,-121.9215997
PAST SALE,July-19-2019,Single Family Residential,5498 Del Oro,SAN JOSE,CA,95124,1350000,3,2.0,SAN JOSE,1612,6000,1968,874,837,,Sold,,,https://www.redfin.com/CA/San-Jose/5498-Del-Oro-Dr-95124/home/1419281,MLSListings,ML81754638,N,Y,37.2381586,-121.9201551
PAST SALE,September-10-2020,Single Family Residential,3487 Calvin Ave,SAN JOSE,CA,95124,1200000,3,2.0,SAN JOSE,1127,6126,1959,455,1065,,Sold,,,https://www.redfin.com/CA/San-Jose/3487-Calvin-Ave-95124/home/1142593,MLSListings,ML81805102,N,Y,37.2625076,-121.940356
PAST SALE,March-27-2020,Single Family Residential,3384 Calvin Ave,SAN JOSE,CA,95124,1234567,3,2.0,SAN JOSE,1527,5989,1959,622,808,,Sold,,,https://www.redfin.com/CA/San-Jose/3384-Calvin-Ave-95124/home/677421,MLSListings,ML81784689,N,Y,37.263471,-121.9397783
PAST SALE,March-4-2017,Single Family Residential,154 Gemini Ct,LOS GATOS,CA,95032,2125000,4,3.5,LOS GATOS,2864,9105,2016,1741,742,,Sold,,,https://www.redfin.com/CA/Los-Gatos/154-Gemini-Ct-95032/home/95955506,MLSListings,ML81630029,N,Y,37.2359759,-121.9114057
PAST SALE,June-22-2021,Single Family Residential,3438 Calvin Ave,SAN JOSE,CA,95124,1300000,3,2.0,SAN JOSE,1399,5915,1959,170,929,,Sold,,,https://www.redfin.com/CA/San-Jose/3438-Calvin-Ave-95124/home/828088,MLSListings,ML81844550,N,Y,37.2629833,-121.9397116
PAST SALE,September-22-2020,Single Family Residential,3559 Calico Ave,SAN JOSE,CA,95124,1223000,3,2.0,SAN JOSE,1127,6525,1959,443,1085,,Sold,,,https://www.redfin.com/CA/San-Jose/3559-Calico-Ave-95124/home/829723,MLSListings,ML81803425,N,Y,37.2618599,-121.9394449
PAST SALE,February-28-2019,Single Family Residential,3577 Calico Ave,SAN JOSE,CA,95124,1280000,3,2.0,SAN JOSE,1234,6270,1959,1015,1037,,Sold,,,https://www.redfin.com/CA/San-Jose/3577-Calico-Ave-95124/home/829725,MLSListings,ML81737199,N,Y,37.261724,-121.9393338
PAST SALE,April-7-2017,Single Family Residential,3474 Nova Scotia Ave,SAN JOSE,CA,95124,940000,3,2.0,SAN JOSE,1265,4280,1979,1707,743,,Sold,,,https://www.redfin.com/CA/San-Jose/3474-Nova-Scotia-Ave-95124/home/1119991,MLSListings,ML81639699,N,Y,37.2634915,-121.9407116
PAST SALE,July-19-2017,Single Family Residential,3479 Nova Scotia Ave,SAN JOSE,CA,95124,1000000,3,2.5,SAN JOSE,1802,2900,1979,1604,555,,Sold,,,https://www.redfin.com/CA/San-Jose/3479-Nova-Scotia-Ave-95124/home/1664028,MLSListings,ML81656764,N,Y,37.2634441,-121.9412449
PAST SALE,,Single Family Residential,2283 Shelley Ave,San Jose,CA,95124,1200000,4,3.0,,2022,3110,1979,,593,,,,,https://www.redfin.com/CA/San-Jose/2283-Shelley-Ave-95124/home/997148,,,N,Y,37.2634253,-121.9415893
PAST SALE,January-16-2019,Single Family Residential,4910 Kenlar,SAN JOSE,CA,95124,1630000,4,3.0,SAN JOSE,1602,6386,1958,1058,1017,,Sold,,,https://www.redfin.com/CA/San-Jose/4910-Kenlar-Dr-95124/home/834000,MLSListings,ML81732701,N,Y,37.2485588,-121.9283114
PAST SALE,August-20-2021,Single Family Residential,1720 Hudson Dr,SAN JOSE,CA,95124,1980000,4,2.0,SAN JOSE,1765,5959,1962,111,1122,,Sold,,,https://www.redfin.com/CA/San-Jose/1720-Hudson-Dr-95124/home/773766,MLSListings,ML81853927,N,Y,37.2776625,-121.9115535
PAST SALE,October-9-2018,Single Family Residential,15187 Dickens Ave,SAN JOSE,CA,95124,1385000,3,2.0,SAN JOSE,1206,8008,1954,1157,1148,,Sold,,,https://www.redfin.com/CA/San-Jose/15187-Dickens-Ave-95124/home/793369,MLSListings,ML81721594,N,Y,37.2479137,-121.9376005
PAST SALE,November-17-2021,Single Family Residential,5293 Roxanne Dr,SAN JOSE,CA,95124,1920000,3,2.0,SAN JOSE,1392,6353,1969,22,1379,,Sold,,,https://www.redfin.com/CA/San-Jose/5293-Roxanne-Dr-95124/home/653635,MLSListings,ML81867043,N,Y,37.24221,-121.9152432
PAST SALE,November-17-2021,Single Family Residential,5197 Rafton Dr,SAN JOSE,CA,95124,2300000,4,2.5,SAN JOSE,1816,8882,1969,22,1267,,Sold,,,https://www.redfin.com/CA/San-Jose/5197-Rafton-Dr-95124/home/917268,MLSListings,ML81866400,N,Y,37.2434983,-121.9091308
PAST SALE,January-10-2018,Single Family Residential,1677 Merrill Dr,SAN JOSE,CA,95124,1500000,5,4.0,SAN JOSE,2272,7670,1972,1429,660,,Sold,,,https://www.redfin.com/CA/San-Jose/1677-Merrill-Dr-95124/home/1538584,MLSListings,ML81683734,N,Y,37.2404442,-121.9087751
PAST SALE,November-17-2021,Single Family Residential,1695 Blossom Hill Rd,SAN JOSE,CA,95124,1530000,4,2.0,SAN JOSE,1876,6638,1959,22,816,,Sold,,,https://www.redfin.com/CA/San-Jose/1695-Blossom-Hill-Rd-95124/home/1756538,MLSListings,ML81865087,N,Y,37.2365733,-121.9091974
PAST SALE,November-18-2021,Single Family Residential,2267 Samaritan Dr,SAN JOSE,CA,95124,1740000,3,2.5,SAN JOSE,1782,2728,2007,21,976,140,Sold,,,https://www.redfin.com/CA/San-Jose/2267-Samaritan-Dr-95124/home/17291723,MLSListings,ML81866485,N,Y,37.2508518,-121.9402157
PAST SALE,November-17-2021,Townhouse,4822 Portola Redwood Ln,SAN JOSE,CA,95124,1075000,2,2.0,SAN JOSE,1396,497,2007,22,770,208,Sold,,,https://www.redfin.com/CA/San-Jose/4822-Portola-Redwood-Ln-95124/home/17288512,MLSListings,ML81867363,N,Y,37.2508575,-121.9377238
PAST SALE,April-6-2018,Single Family Residential,3892 Sorci Dr,SAN JOSE,CA,95124,1360000,3,2.0,SAN JOSE,1243,7133,1959,1343,1094,,Sold,,,https://www.redfin.com/CA/San-Jose/3892-Sorci-Dr-95124/home/1229292,MLSListings,ML81694070,N,Y,37.2625969,-121.9029069
PAST SALE,November-19-2021,Single Family Residential,1667 Milroy Pl,SAN JOSE,CA,95124,1775000,3,2.0,SAN JOSE,1549,6058,1959,20,1146,,Sold,,,https://www.redfin.com/CA/San-Jose/1667-Milroy-Pl-95124/home/1229304,MLSListings,ML81867517,N,Y,37.259222,-121.9071969
PAST SALE,November-19-2021,Single Family Residential,1625 Noreen Dr,SAN JOSE,CA,95124,1810000,4,2.0,SAN JOSE,1584,5947,1964,20,1143,,Sold,,,https://www.redfin.com/CA/San-Jose/1625-Noreen-Dr-95124/home/666197,MLSListings,ML81867218,N,Y,37.2614941,-121.9042628
PAST SALE,August-24-2020,Single Family Residential,1770 Oakwood Ave,SAN JOSE,CA,95124,1275000,3,2.0,SAN JOSE,1186,7232,1956,472,1075,,Sold,,,https://www.redfin.com/CA/San-Jose/1770-Oakwood-Ave-95124/home/831033,MLSListings,ML81799515,N,Y,37.2596823,-121.9143763
PAST SALE,October-9-2018,Single Family Residential,4184 Jan Way,SAN JOSE,CA,95124,1327100,3,2.0,SAN JOSE,1715,7247,1957,1157,774,,Sold,,,https://www.redfin.com/CA/San-Jose/4184-Jan-Way-95124/home/832088,MLSListings,ML81715972,N,Y,37.2568912,-121.9140874
PAST SALE,July-20-2019,Single Family Residential,1771 Nelson Way,SAN JOSE,CA,95124,1250001,4,2.0,SAN JOSE,1715,7164,1956,873,729,,Sold,,,https://www.redfin.com/CA/San-Jose/1771-Nelson-Way-95124/home/1066725,MLSListings,ML81746745,N,Y,37.2594602,-121.9141763
PAST SALE,September-1-2021,Single Family Residential,4086 Jan Way,SAN JOSE,CA,95124,1600000,4,2.0,SAN JOSE,1884,7205,1957,99,849,,Sold,,,https://www.redfin.com/CA/San-Jose/4086-Jan-Way-95124/home/1259917,MLSListings,ML81855569,N,Y,37.2577699,-121.914732
PAST SALE,October-9-2020,Single Family Residential,4153 Samson Way,SAN JOSE,CA,95124,1450000,3,2.0,SAN JOSE,1500,7080,1957,426,967,,Sold,,,https://www.redfin.com/CA/San-Jose/4153-Samson-Way-95124/home/635789,MLSListings,ML81807782,N,Y,37.2571836,-121.9138651
PAST SALE,July-15-2021,Single Family Residential,4143 Jan Way,SAN JOSE,CA,95124,1761000,4,2.0,SAN JOSE,1400,7445,1957,147,1258,,Sold,,,https://www.redfin.com/CA/San-Jose/4143-Jan-Way-95124/home/946737,MLSListings,ML81848477,N,Y,37.2570891,-121.914932
PAST SALE,June-8-2021,Single Family Residential,14621 Charmeran Ave,San Jose,CA,95124,2650000,5,4.0,699 - Not Defined,3327,20432,1950,184,797,,Sold,,,https://www.redfin.com/CA/San-Jose/14621-Charmeran-Ave-95124/home/1063644,CRMLS,OC21073186,N,Y,37.2581716,-121.9244222
PAST SALE,March-6-2017,Single Family Residential,1793 Branham Ln,SAN JOSE,CA,95124,822000,3,2.0,SAN JOSE,1346,6840,1956,1739,611,,Sold,,,https://www.redfin.com/CA/San-Jose/1793-Branham-Ln-95124/home/1036910,MLSListings,ML81635390,N,Y,37.2511187,-121.9163989
PAST SALE,March-23-2021,Single Family Residential,14562 Charmeran Ave,SAN JOSE,CA,95124,2360000,5,3.5,SAN JOSE,2997,9147,1950,261,787,,Sold,,,https://www.redfin.com/CA/San-Jose/14562-Charmeran-Ave-95124/home/1741285,MLSListings,ML81829908,N,Y,37.2579871,-121.9235333
PAST SALE,December-18-2020,Single Family Residential,1795 Conrad Ave,SAN JOSE,CA,95124,1350000,4,2.0,SAN JOSE,1802,6365,1956,356,749,,Sold,,,https://www.redfin.com/CA/San-Jose/1795-Conrad-Ave-95124/home/1793965,MLSListings,ML81819249,N,Y,37.2518675,-121.916599
PAST SALE,March-12-2019,Single Family Residential,1743 Balsa Ave,SAN JOSE,CA,95124,1590000,5,2.5,SAN JOSE,2423,6767,1963,1003,656,,Sold,,,https://www.redfin.com/CA/San-Jose/1743-Balsa-Ave-95124/home/1327762,MLSListings,ML81735305,N,Y,37.2724845,-121.9136429
PAST SALE,,Single Family Residential,1798 Albert Ave,San Jose,CA,95124,1165000,3,2.0,,1144,8856,1958,,1018,,,,,https://www.redfin.com/CA/San-Jose/1798-Albert-Ave-95124/home/1755990,,,N,Y,37.2521856,-121.9170435
PAST SALE,,Single Family Residential,1782 Albert Ave,San Jose,CA,95124,1125000,3,2.0,,1555,7365,1959,,723,,,,,https://www.redfin.com/CA/San-Jose/1782-Albert-Ave-95124/home/1440216,,,N,Y,37.2522084,-121.9157766
PAST SALE,September-28-2018,Single Family Residential,1787 Wyrick Ave,SAN JOSE,CA,95124,1275000,3,2.0,SAN JOSE,1120,7473,1959,1168,1138,,Sold,,,https://www.redfin.com/CA/San-Jose/1787-Wyrick-Ave-95124/home/1050117,MLSListings,ML81720140,N,Y,37.2542861,-121.9159989
PAST SALE,August-28-2020,Single Family Residential,4761 Camden Ave,SAN JOSE,CA,95124,1100000,3,2.0,SAN JOSE,1696,6390,1956,468,649,,Sold,,,https://www.redfin.com/CA/San-Jose/4761-Camden-Ave-95124/home/1129548,MLSListings,ML81796939,N,Y,37.2516651,-121.9125093
PAST SALE,May-13-2019,Single Family Residential,4773 Camden Ave,SAN JOSE,CA,95124,1321000,4,2.0,SAN JOSE,1396,6480,1956,941,946,,Sold,,,https://www.redfin.com/CA/San-Jose/4773-Camden-Ave-95124/home/1467075,MLSListings,ML81749402,N,Y,37.2514661,-121.9124204
PAST SALE,May-17-2017,Single Family Residential,1792 Wyrick Ave,SAN JOSE,CA,95124,1220000,3,2.0,SAN JOSE,1562,7068,1959,1667,781,,Sold,,,https://www.redfin.com/CA/San-Jose/1792-Wyrick-Ave-95124/home/1697813,MLSListings,ML81646386,N,Y,37.2538019,-121.9164211
PAST SALE,August-6-2018,Single Family Residential,14305 Holden Ct,SAN JOSE,CA,95124,1675000,3,3.0,SAN JOSE,2150,11904,1952,1221,779,,Sold,,,https://www.redfin.com/CA/San-Jose/14305-Holden-Ct-95124/home/1777803,MLSListings,ML81708096,N,Y,37.2519529,-121.9188215
PAST SALE,July-21-2017,Single Family Residential,14842 Holden Way,SAN JOSE,CA,95124,1188000,3,1.0,SAN JOSE,1108,10240,1950,1602,1072,,Sold,,,https://www.redfin.com/CA/San-Jose/14842-Holden-Way-95124/home/1791518,MLSListings,ML81653071,N,Y,37.25305,-121.9191771
PAST SALE,July-23-2020,Single Family Residential,14280 Holden Ct,SAN JOSE,CA,95124,1710000,5,2.0,SAN JOSE,2067,13991,1950,504,827,,Sold,,,https://www.redfin.com/CA/San-Jose/14280-Holden-Ct-95124/home/793291,MLSListings,ML81795978,N,Y,37.2515111,-121.9182881
PAST SALE,July-8-2021,Single Family Residential,1775 Barcelona Ave,SAN JOSE,CA,95124,1550000,3,2.0,SAN JOSE,1120,6599,1959,154,1384,,Sold,,,https://www.redfin.com/CA/San-Jose/1775-Barcelona-Ave-95124/home/1580456,MLSListings,ML81846782,N,Y,37.2534885,-121.9150209
PAST SALE,November-14-2017,Single Family Residential,14920 Sutton Dr,SAN JOSE,CA,95124,2350000,5,4.0,SAN JOSE,3989,11639,2017,1486,589,,Sold,,,https://www.redfin.com/CA/San-Jose/14920-Sutton-Dr-95124/home/1494793,MLSListings,ML81676065,N,Y,37.2519152,-121.9181325
PAST SALE,June-8-2018,Single Family Residential,4356 Leigh Ave,SAN JOSE,CA,95124,1200000,3,2.0,SAN JOSE,1212,7210,1955,1280,990,,Sold,,,https://www.redfin.com/CA/San-Jose/4356-Leigh-Ave-95124/home/1384166,MLSListings,ML81696219,N,Y,37.2545661,-121.921333
PAST SALE,April-15-2019,Single Family Residential,1805 Wyrick Ave,SAN JOSE,CA,95124,1500000,4,2.0,SAN JOSE,1476,7601,1960,969,1016,,Sold,,,https://www.redfin.com/CA/San-Jose/1805-Wyrick-Ave-95124/home/1697820,MLSListings,ML81741467,N,Y,37.2543046,-121.9177547
PAST SALE,June-15-2018,Single Family Residential,4609 Sally Dr,SAN JOSE,CA,95124,1310000,3,2.0,SAN JOSE,1144,7711,1958,1273,1145,,Sold,,,https://www.redfin.com/CA/San-Jose/4609-Sally-Dr-95124/home/872933,MLSListings,ML81703334,N,Y,37.2527901,-121.9175991
PAST SALE,April-24-2020,Single Family Residential,14255 Wyrick Ave,SAN JOSE,CA,95124,2000000,5,3.0,SAN JOSE,3311,9653,1950,594,604,,Sold,,,https://www.redfin.com/CA/San-Jose/14255-Wyrick-Ave-95124/home/1201848,MLSListings,ML81786165,N,Y,37.2542512,-121.9179325
PAST SALE,March-4-2020,Single Family Residential,4755 Sally Dr,SAN JOSE,CA,95124,1610000,3,2.0,SAN JOSE,2147,7550,1956,645,750,,Sold,,,https://www.redfin.com/CA/San-Jose/4755-Sally-Dr-95124/home/1217813,MLSListings,ML81781696,N,Y,37.2515862,-121.9175991
PAST SALE,March-21-2017,Single Family Residential,14271 Wyrick Ave,SAN JOSE,CA,95124,1100000,3,1.5,SAN JOSE,1667,9375,1950,1724,660,,Sold,,,https://www.redfin.com/CA/San-Jose/14271-Wyrick-Ave-95124/home/956230,MLSListings,ML81637399,N,Y,37.2542209,-121.9182214
PAST SALE,May-14-2021,Single Family Residential,14417 Wyrick Ave,SAN JOSE,CA,95124,2030000,4,2.0,SAN JOSE,1867,9635,1950,209,1087,,Sold,,,https://www.redfin.com/CA/San-Jose/14417-Wyrick-Ave-95124/home/1129561,MLSListings,ML81837654,N,Y,37.2541995,-121.9207996
PAST SALE,February-19-2020,Single Family Residential,14319 Branham Ln,SAN JOSE,CA,95124,1155000,3,2.0,SAN JOSE,1643,9637,1952,659,703,,Sold,,,https://www.redfin.com/CA/San-Jose/14319-Branham-Ln-95124/home/1179715,MLSListings,ML81778778,N,Y,37.251135,-121.9189771
PAST SALE,July-26-2021,Single Family Residential,14434 Holden Ct,SAN JOSE,CA,95124,2875000,5,4.5,SAN JOSE,3672,18991,1950,136,783,,Sold,,,https://www.redfin.com/CA/San-Jose/14434-Holden-Ct-95124/home/1637137,MLSListings,ML81847766,N,Y,37.2515601,-121.921133
PAST SALE,November-16-2020,Single Family Residential,14842 Rossmoyne Dr,SAN JOSE,CA,95124,2455000,5,3.5,SAN JOSE,3050,11042,1993,388,805,,Sold,,,https://www.redfin.com/CA/San-Jose/14842-Rossmoyne-Dr-95124/home/831597,MLSListings,ML81813371,N,Y,37.2530053,-121.9202662
PAST SALE,February-5-2020,Single Family Residential,4137 Leigh Ave,SAN JOSE,CA,95124,1007000,3,1.0,SAN JOSE,1016,6000,1962,673,991,,Sold,,,https://www.redfin.com/CA/San-Jose/4137-Leigh-Ave-95124/home/831669,MLSListings,ML81774422,N,Y,37.2571096,-121.9221331
PAST SALE,September-7-2018,Single Family Residential,14642 Bronson Ave,SAN JOSE,CA,95124,1675000,6,3.0,SAN JOSE,2823,10224,1950,1189,593,,Sold,,,https://www.redfin.com/CA/San-Jose/14642-Bronson-Ave-95124/home/1488490,MLSListings,ML81714291,N,Y,37.2544634,-121.9249334
PAST SALE,July-23-2021,Single Family Residential,14600 Wyrick Ave,SAN JOSE,CA,95124,2250000,4,2.0,SAN JOSE,1518,11481,1952,139,1482,,Sold,,,https://www.redfin.com/CA/San-Jose/14600-Wyrick-Ave-95124/home/831678,MLSListings,ML81850403,N,Y,37.2566584,-121.923511
PAST SALE,August-6-2020,Single Family Residential,14813 Branham Ln,SAN JOSE,CA,95124,1100000,3,1.0,SAN JOSE,1108,9629,1952,490,993,,Sold,,,https://www.redfin.com/CA/San-Jose/14813-Branham-Ln-95124/home/1806254,MLSListings,ML81795959,N,Y,37.2510222,-121.9280003
PAST SALE,,Single Family Residential,14827 Branham Ln,San Jose,CA,95124,1375000,3,2.5,,2009,9501,2003,,684,,,,,https://www.redfin.com/CA/San-Jose/14827-Branham-Ln-95124/home/1384980,,,N,Y,37.251055,-121.928267
PAST SALE,March-21-2017,Single Family Residential,14825 Bronson Ave,SAN JOSE,CA,95124,2388888,5,3.0,SAN JOSE,3573,9625,1955,1724,669,,Sold,,,https://www.redfin.com/CA/San-Jose/14825-Bronson-Ave-95124/home/1741356,MLSListings,ML81641329,N,Y,37.2547306,-121.9281781
PAST SALE,March-8-2017,Single Family Residential,14927 Conway Ave,SAN JOSE,CA,95124,2300000,5,3.5,SAN JOSE,3517,11500,2017,1737,654,,Sold,,,https://www.redfin.com/CA/San-Jose/14927-Conway-Ave-95124/home/833541,MLSListings,ML81637870,N,Y,37.251731,-121.9304005
PAST SALE,March-6-2020,Single Family Residential,14911 Conway Ave,SAN JOSE,CA,95124,2180000,4,2.5,SAN JOSE,2522,9726,1957,643,864,,Sold,,,https://www.redfin.com/CA/San-Jose/14911-Conway-Ave-95124/home/833539,MLSListings,ML81783033,N,Y,37.2519932,-121.9304671
PAST SALE,March-30-2020,Single Family Residential,14791 Cole Dr,SAN JOSE,CA,95124,1550000,3,1.0,SAN JOSE,1656,9762,1950,619,936,,Sold,,,https://www.redfin.com/CA/San-Jose/14791-Cole-Dr-95124/home/918621,MLSListings,ML81785285,N,Y,37.2538532,-121.9274669
PAST SALE,July-26-2019,Single Family Residential,14774 Elton Ct,SAN JOSE,CA,95124,1200000,3,2.0,SAN JOSE,1526,9446,1950,867,786,,Sold,,,https://www.redfin.com/CA/San-Jose/14774-Elton-Ct-95124/home/1338209,MLSListings,ML81756395,N,Y,37.2514614,-121.9272892
PAST SALE,February-28-2017,Single Family Residential,14757 Branham Ln,SAN JOSE,CA,95124,1160000,3,3.0,SAN JOSE,1944,9374,1952,1745,597,,Sold,,,https://www.redfin.com/CA/San-Jose/14757-Branham-Ln-95124/home/1057687,MLSListings,ML81630049,N,Y,37.2511046,-121.9269113
PAST SALE,June-5-2020,Single Family Residential,14851 Sandy Ln,SAN JOSE,CA,95124,1975000,4,2.5,SAN JOSE,2599,9556,1951,552,760,,Sold,,,https://www.redfin.com/CA/San-Jose/14851-Sandy-Ln-95124/home/1582620,MLSListings,ML81790815,N,Y,37.2529552,-121.9272003
PAST SALE,January-16-2018,Single Family Residential,14893 Sandy Ln,SAN JOSE,CA,95124,1275000,3,1.0,SAN JOSE,1047,9091,1950,1423,1218,,Sold,,,https://www.redfin.com/CA/San-Jose/14893-Sandy-Ln-95124/home/848649,MLSListings,ML81687452,N,Y,37.2523036,-121.927178
PAST SALE,October-30-2019,Single Family Residential,14851 Elton Dr,SAN JOSE,CA,95124,1944000,4,3.0,SAN JOSE,2133,9450,1950,771,911,,Sold,,,https://www.redfin.com/CA/San-Jose/14851-Elton-Dr-95124/home/832418,MLSListings,ML81758661,N,Y,37.2529116,-121.9282226
PAST SALE,July-7-2017,Single Family Residential,14744 Elton Ct,SAN JOSE,CA,95124,1750000,5,3.0,SAN JOSE,2737,13090,1950,1616,639,,Sold,,,https://www.redfin.com/CA/San-Jose/14744-Elton-Ct-95124/home/552802,MLSListings,ML81640105,N,Y,37.2514953,-121.9268002
PAST SALE,August-1-2017,Single Family Residential,14871 Nelson Way,SAN JOSE,CA,95124,2380000,5,5.0,SAN JOSE,3751,9375,2017,1591,634,,Sold,,,https://www.redfin.com/CA/San-Jose/14871-Nelson-Way-95124/home/832366,MLSListings,ML81653727,N,Y,37.256444,-121.9291115
PAST SALE,February-16-2021,Single Family Residential,14880 Conway Ct,SAN JOSE,CA,95124,2615000,4,4.5,SAN JOSE,3131,9569,2003,296,835,,Sold,,,https://www.redfin.com/CA/San-Jose/14880-Conway-Ct-95124/home/626480,MLSListings,ML81824752,N,Y,37.2514519,-121.9292004
PAST SALE,July-21-2017,Single Family Residential,14943 Conway Ave,SAN JOSE,CA,95124,1540000,4,2.0,SAN JOSE,2218,14521,1951,1602,694,,Sold,,,https://www.redfin.com/CA/San-Jose/14943-Conway-Ave-95124/home/832467,MLSListings,ML81654724,N,Y,37.251532,-121.9303116
PAST SALE,February-23-2021,Single Family Residential,14279 Nova Scotia Ave,SAN JOSE,CA,95124,2212000,5,3.5,SAN JOSE,2941,8919,1946,289,752,,Sold,,,https://www.redfin.com/CA/San-Jose/14279-Nova-Scotia-Ave-95124/home/1727550,MLSListings,ML81824547,N,Y,37.2609971,-121.9413782
PAST SALE,September-22-2020,Single Family Residential,14841 Branham Ln,SAN JOSE,CA,95124,1060000,4,2.0,SAN JOSE,1840,9548,1951,443,576,,Sold,,,https://www.redfin.com/CA/San-Jose/14841-Branham-Ln-95124/home/833548,MLSListings,ML81804363,N,Y,37.2510501,-121.9285337
PAST SALE,September-15-2017,Single Family Residential,14850 Conway Ave,SAN JOSE,CA,95124,2287000,5,5.0,SAN JOSE,3700,9375,2017,1546,618,,Sold,,,https://www.redfin.com/CA/San-Jose/14850-Conway-Ave-95124/home/1777816,MLSListings,ML81670258,N,Y,37.2529323,-121.9298449
PAST SALE,September-26-2019,Single Family Residential,14817 Ronda Dr,SAN JOSE,CA,95124,1065000,3,1.0,SAN JOSE,1271,10841,1950,805,838,,Sold,,,https://www.redfin.com/CA/San-Jose/14817-Ronda-Dr-95124/home/984708,MLSListings,ML81745560,N,Y,37.2498936,-121.9280003
PAST SALE,November-9-2017,Single Family Residential,14804 Ronda Dr,SAN JOSE,CA,95124,1313000,4,2.0,SAN JOSE,1818,9125,1950,1491,722,,Sold,,,https://www.redfin.com/CA/San-Jose/14804-Ronda-Dr-95124/home/1861813,MLSListings,ML81681195,N,Y,37.2495089,-121.9277781
PAST SALE,September-21-2018,Single Family Residential,14780 Ronda Dr,SAN JOSE,CA,95124,1495000,5,3.0,SAN JOSE,1905,9234,1950,1175,785,,Sold,,,https://www.redfin.com/CA/San-Jose/14780-Ronda-Dr-95124/home/956240,MLSListings,ML81720033,N,Y,37.2495186,-121.9272447
PAST SALE,July-6-2017,Single Family Residential,138 Gemini Ct,LOS GATOS,CA,95032,1650000,3,2.5,LOS GATOS,2437,8001,1992,1617,677,,Sold,,,https://www.redfin.com/CA/Los-Gatos/138-Gemini-Ct-95032/home/1145079,MLSListings,ML81649022,N,Y,37.235279,-121.9114424
PAST SALE,July-20-2017,Single Family Residential,15218 Woodard Rd,SAN JOSE,CA,95124,1070000,3,2.5,SAN JOSE,2000,8280,1948,1603,535,,Sold,,,https://www.redfin.com/CA/San-Jose/15218-Woodard-Rd-95124/home/1848733,MLSListings,ML81655737,N,Y,37.2600561,-121.935245
