SALE TYPE,SOLD DATE,PROPERTY TYPE,ADDRESS,CITY,STATE OR PROVINCE,ZIP OR POSTAL CODE,PRICE,BEDS,BATHS,LOCATION,SQUARE FEET,LOT SIZE,YEAR BUILT,DAYS ON MARKET,$/SQUARE FEET,HOA/MONTH,STATUS,NEXT OPEN HOUSE START TIME,NEXT OPEN HOUSE END TIME,URL (SEE https://www.redfin.com/buy-a-home/comparative-market-analysis FOR INFO ON PRICING),SOURCE,MLS#,FAVORITE,INTERESTED,LATITUDE,LONGITUDE
PAST SALE,March-7-2018,Single Family Residential,5288 Elmwood Dr,SAN JOSE,CA,95130,2200000,5,3.0,SAN JOSE,2719,7491,1996,1373,809,,Sold,,,https://www.redfin.com/CA/San-Jose/5288-Elmwood-Dr-95130/home/1298897,MLSListings,ML81691345,N,Y,37.2871597,-121.9938961
PAST SALE,June-8-2020,Single Family Residential,5021 Mccoy Ave,SAN JOSE,CA,95130,1525000,3,2.0,SAN JOSE,1578,6008,1959,549,966,,Sold,,,https://www.redfin.com/CA/San-Jose/5021-McCoy-Ave-95130/home/1456763,MLSListings,ML81789811,N,Y,37.2765004,-121.9884766
PAST SALE,September-3-2021,Single Family Residential,1310 Vernal Dr,SAN JOSE,CA,95130,1380000,2,2.0,SAN JOSE,988,6435,1958,97,1397,,Sold,,,https://www.redfin.com/CA/San-Jose/1310-Vernal-Dr-95130/home/1191150,MLSListings,ML81854333,N,Y,37.3000407,-121.9733274
PAST SALE,,Single Family Residential,1493 Hartley Ct,San Jose,CA,95130,1720000,3,3.0,,2302,10386,1959,,747,,,,,https://www.redfin.com/CA/San-Jose/1493-Hartley-Ct-95130/home/1662422,,,N,Y,37.2963625,-121.9697508
PAST SALE,October-31-2018,Single Family Residential,1968 Serge Ave,SAN JOSE,CA,95130,1433000,3,2.0,SAN JOSE,1330,6200,1958,1135,1077,,Sold,,,https://www.redfin.com/CA/San-Jose/1968-Serge-Ave-95130/home/1805802,MLSListings,ML81725739,N,Y,37.2862137,-121.9929188
PAST SALE,June-25-2019,Single Family Residential,1371 Poe Ln,SAN JOSE,CA,95130,1380000,4,2.0,SAN JOSE,1502,6405,1959,898,919,,Sold,,,https://www.redfin.com/CA/San-Jose/1371-Poe-Ln-95130/home/758304,MLSListings,ML81750371,N,Y,37.2988431,-121.9697508
PAST SALE,July-24-2019,Single Family Residential,1348 San Tomas Aquino Rd,SAN JOSE,CA,95130,1260000,3,2.0,SAN JOSE,1766,10466,1949,869,713,,Sold,,,https://www.redfin.com/CA/San-Jose/1348-San-Tomas-Aquino-Rd-95130/home/757079,MLSListings,ML81755589,N,Y,37.2997571,-121.9763929
MLS Listing,,Single Family Residential,1518 Pyramid Ct,SAN JOSE,CA,95130,2188000,5,3.0,SAN JOSE,2658,8763,1967,1,823,,Active,December-11-2021 12:00 PM,December-11-2021 02:00 PM,https://www.redfin.com/CA/San-Jose/1518-Pyramid-Ct-95130/home/1847172,MLSListings,ML81872090,N,Y,37.2963021,-121.9729497
MLS Listing,,Single Family Residential,5004 Kingston Way,SAN JOSE,CA,95130,1698000,3,2.0,SAN JOSE,1127,6600,1960,7,1507,,Active,,,https://www.redfin.com/CA/San-Jose/5004-Kingston-Way-95130/home/1427210,MLSListings,ML81871623,N,Y,37.2730871,-121.9880768
MLS Listing,,Townhouse,5104 Westmont Ave #4,SAN JOSE,CA,95130,830000,2,2.5,SAN JOSE,1105,418,1969,70,751,447,Active,,,https://www.redfin.com/CA/San-Jose/5104-Westmont-Ave-95130/unit-4/home/665228,MLSListings,ML81864905,N,Y,37.2716172,-121.9929739
PAST SALE,,Single Family Residential,12779 LANTANA AVE,SAN JOSE,CA,95130,1550000,4,3.0,,2534,10161,2020,,612,,,,,https://www.redfin.com/CA/SAN-JOSE/12779-LANTANA-AVE-95130/home/1740764,,,N,Y,37.282401,-121.987266
PAST SALE,August-2-2018,Single Family Residential,12843 Lantana Ave,SARATOGA,CA,95070,1820000,4,3.0,SARATOGA,2197,10112,1952,1225,828,,Sold,,,https://www.redfin.com/CA/Saratoga/12843-Lantana-Ave-95070/home/814407,MLSListings,ML81711379,N,Y,37.2815734,-121.9872328
PAST SALE,March-11-2021,Single Family Residential,4018 Hamilton Park Dr,San Jose,CA,95130,1960000,4,2.0,San Jose,1907,6600,1967,273,1028,,Sold,,,https://www.redfin.com/CA/San-Jose/4018-Hamilton-Park-Dr-95130/home/756721,"bridgeMLS, Bay East AOR, or Contra Costa AOR",40935934,N,Y,37.2954919,-121.973394
PAST SALE,,Single Family Residential,4891 Alex Dr,San Jose,CA,95130,1800000,3,2.0,,1256,5621,1963,,1433,,,,,https://www.redfin.com/CA/San-Jose/4891-Alex-Dr-95130/home/1084726,,,N,Y,37.2797755,-121.9868996
PAST SALE,July-30-2021,Single Family Residential,4905 Alex Dr,SAN JOSE,CA,95130,1650000,6,3.0,SAN JOSE,2468,5696,1964,132,669,,Sold,,,https://www.redfin.com/CA/San-Jose/4905-Alex-Dr-95130/home/1066222,MLSListings,ML81850877,N,Y,37.2797475,-121.9870551
PAST SALE,June-29-2017,Single Family Residential,5204 Yorkton Way,SAN JOSE,CA,95130,1650000,4,2.0,SAN JOSE,2018,6161,1959,1624,818,,Sold,,,https://www.redfin.com/CA/San-Jose/5204-Yorkton-Way-95130/home/772981,MLSListings,ML81650335,N,Y,37.2731338,-121.9922303
PAST SALE,March-15-2021,Single Family Residential,4801 Manitoba Dr,SAN JOSE,CA,95130,1777050,3,2.0,SAN JOSE,1415,5988,1961,269,1256,,Sold,,,https://www.redfin.com/CA/San-Jose/4801-Manitoba-Dr-95130/home/598836,MLSListings,ML81828276,N,Y,37.2740102,-121.984323
PAST SALE,August-13-2019,Single Family Residential,4819 Manitoba Dr,SAN JOSE,CA,95130,1630000,4,2.5,SAN JOSE,1953,5981,1962,849,835,,Sold,,,https://www.redfin.com/CA/San-Jose/4819-Manitoba-Dr-95130/home/815186,MLSListings,ML81758092,N,Y,37.2740319,-121.9845007
PAST SALE,July-28-2020,Single Family Residential,4786 Manitoba Dr,SAN JOSE,CA,95130,1250000,3,1.0,SAN JOSE,1045,7248,1962,499,1196,,Sold,,,https://www.redfin.com/CA/San-Jose/4786-Manitoba-Dr-95130/home/861749,MLSListings,ML81796739,N,Y,37.2735495,-121.9841675
PAST SALE,April-30-2021,Single Family Residential,4768 Manitoba Dr,SAN JOSE,CA,95130,2080000,4,2.5,SAN JOSE,2183,7150,1961,223,953,,Sold,,,https://www.redfin.com/CA/San-Jose/4768-Manitoba-Dr-95130/home/848293,MLSListings,ML81835795,N,Y,37.2735278,-121.9839898
PAST SALE,June-13-2018,Single Family Residential,4925 Vanderbilt Dr,SAN JOSE,CA,95130,1770000,4,2.0,SAN JOSE,1717,5728,1964,1275,1031,,Sold,,,https://www.redfin.com/CA/San-Jose/4925-Vanderbilt-Dr-95130/home/1451923,MLSListings,ML81705726,N,Y,37.2790441,-121.9871439
PAST SALE,March-24-2021,Single Family Residential,2102 Weston Dr,SAN JOSE,CA,95130,1300000,3,1.0,SAN JOSE,1036,6619,1959,260,1255,,Sold,,,https://www.redfin.com/CA/San-Jose/2102-Weston-Dr-95130/home/1701477,MLSListings,ML81830907,N,Y,37.2833628,-121.979414
PAST SALE,November-20-2018,Single Family Residential,2467 Le Bain Dr,SAN JOSE,CA,95130,1602500,4,2.0,SAN JOSE,1535,5865,1959,1115,1044,,Sold,,,https://www.redfin.com/CA/San-Jose/2467-Le-Bain-Dr-95130/home/1838906,MLSListings,ML81728308,N,Y,37.2776058,-121.9823683
PAST SALE,August-10-2017,Single Family Residential,2087 Heather Glen Dr,San Jose,CA,95130-3101,1805000,4,3.0,San Jose,,3639,2005,1582,,74,Sold,,,https://www.redfin.com/CA/San-Jose/2087-Heather-Glen-Dr-95130/home/2122033,"bridgeMLS, Bay East AOR, or Contra Costa AOR",40787823,N,Y,37.2851267,-121.9848561
PAST SALE,June-17-2019,Single Family Residential,2029 Woodglen Dr,SAN JOSE,CA,95130,1980000,5,3.0,SAN JOSE,2683,4363,2005,906,738,75,Sold,,,https://www.redfin.com/CA/San-Jose/2029-Woodglen-Dr-95130/home/2121810,MLSListings,ML81752519,N,Y,37.2855293,-121.9847673
PAST SALE,September-1-2021,Single Family Residential,2076 Heather Glen Dr,SAN JOSE,CA,95130,2260000,4,2.5,SAN JOSE,2406,3006,2005,99,939,82,Sold,,,https://www.redfin.com/CA/San-Jose/2076-Heather-Glen-Dr-95130/home/2122054,MLSListings,ML81856673,N,Y,37.2854828,-121.9852337
PAST SALE,August-6-2021,Single Family Residential,5257 Elmwood Dr,SAN JOSE,CA,95130,1800000,4,2.0,SAN JOSE,1460,7700,1958,125,1233,,Sold,,,https://www.redfin.com/CA/San-Jose/5257-Elmwood-Dr-95130/home/1466758,MLSListings,ML81843772,N,Y,37.2877024,-121.9930299
PAST SALE,December-1-2017,Single Family Residential,4835 Alex Dr,SAN JOSE,CA,95130,1670000,4,2.0,SAN JOSE,1433,6700,1964,1469,1165,,Sold,,,https://www.redfin.com/CA/San-Jose/4835-Alex-Dr-95130/home/1488051,MLSListings,ML81683333,N,Y,37.2797785,-121.9860778
PAST SALE,August-10-2021,Single Family Residential,1588 Vallejo Dr,SAN JOSE,CA,95130,1400000,3,2.0,SAN JOSE,1428,9060,1958,121,980,,Sold,,,https://www.redfin.com/CA/San-Jose/1588-Vallejo-Dr-95130/home/1534509,MLSListings,ML81849236,N,Y,37.2936832,-121.984212
PAST SALE,August-13-2021,Single Family Residential,2437 Grandby Dr,SAN JOSE,CA,95130,1600000,3,2.0,SAN JOSE,1201,6363,1959,118,1332,,Sold,,,https://www.redfin.com/CA/San-Jose/2437-Grandby-Dr-95130/home/814936,MLSListings,ML81849162,N,Y,37.2781445,-121.9870107
PAST SALE,July-23-2020,Single Family Residential,5057 Bucknall Rd,SAN JOSE,CA,95130,1520000,4,2.0,SAN JOSE,1788,7867,1960,504,850,,Sold,,,https://www.redfin.com/CA/San-Jose/5057-Bucknall-Rd-95130/home/813692,MLSListings,ML81793903,N,Y,37.2835169,-121.9904534
PAST SALE,May-31-2019,Single Family Residential,1389 Wylie Way,SAN JOSE,CA,95130,1500000,4,2.0,SAN JOSE,1502,7560,1959,923,999,,Sold,,,https://www.redfin.com/CA/San-Jose/1389-Wylie-Way-95130/home/1096917,MLSListings,ML81748440,N,Y,37.2983358,-121.9687511
PAST SALE,March-1-2021,Single Family Residential,1404 Vallejo Dr,SAN JOSE,CA,95130,1625000,4,3.0,SAN JOSE,2068,8297,1958,283,786,,Sold,,,https://www.redfin.com/CA/San-Jose/1404-Vallejo-Dr-95130/home/550637,MLSListings,ML81827118,N,Y,37.2988599,-121.9781256
PAST SALE,July-6-2018,Single Family Residential,2474 Grandby Dr,San Jose,CA,95130,1663200,4,2.0,San Jose,1574,6268,1959,1252,1057,,Sold,,,https://www.redfin.com/CA/San-Jose/2474-Grandby-Dr-95130/home/1402324,BAREIS,21814553,N,Y,37.2775302,-121.9863665
PAST SALE,May-17-2021,Single Family Residential,4832 Bannock Cir,SAN JOSE,CA,95130,1633000,3,2.0,SAN JOSE,1320,6103,1961,206,1237,,Sold,,,https://www.redfin.com/CA/San-Jose/4832-Bannock-Cir-95130/home/815194,MLSListings,ML81834766,N,Y,37.2743973,-121.9857224
PAST SALE,June-21-2019,Single Family Residential,17851 Los Alamos Dr,SAN JOSE,CA,95130,1500000,3,1.5,SAN JOSE,1660,10164,1950,902,904,,Sold,,,https://www.redfin.com/CA/SAN-JOSE/17851-LOS-ALAMOS-DR-95130/home/1725414,MLSListings,ML81736871,N,Y,37.296181,-121.982825
PAST SALE,November-9-2020,Single Family Residential,1442 Piland Dr,SAN JOSE,CA,95130,1555000,4,2.0,SAN JOSE,1502,7412,1959,395,1035,,Sold,,,https://www.redfin.com/CA/San-Jose/1442-Piland-Dr-95130/home/757596,MLSListings,ML81813340,N,Y,37.2976206,-121.9668183
PAST SALE,,Single Family Residential,5059 Bobbie Ave,San Jose,CA,95130,1225000,3,2.0,,1230,7815,1963,,996,,,,,https://www.redfin.com/CA/San-Jose/5059-Bobbie-Ave-95130/home/552263,,,N,Y,37.2812521,-121.990298
PAST SALE,June-11-2021,Single Family Residential,4919 Harmony Way,SAN JOSE,CA,95130,1780000,3,2.0,SAN JOSE,1250,6075,1958,181,1424,,Sold,,,https://www.redfin.com/CA/San-Jose/4919-Harmony-Way-95130/home/756376,MLSListings,ML81842428,N,Y,37.2860737,-121.9877659
PAST SALE,June-21-2021,Single Family Residential,2288 Maroel Dr,SAN JOSE,CA,95130,1710000,3,2.0,SAN JOSE,1181,5441,1963,171,1448,,Sold,,,https://www.redfin.com/CA/San-Jose/2288-Maroel-Dr-95130/home/1402224,MLSListings,ML81844006,N,Y,37.2806398,-121.9855891
PAST SALE,September-16-2020,Single Family Residential,4799 Norwich Way,SAN JOSE,CA,95130,1350000,3,2.0,SAN JOSE,1230,6327,1963,449,1098,,Sold,,,https://www.redfin.com/CA/San-Jose/4799-Norwich-Way-95130/home/812780,MLSListings,ML81806005,N,Y,37.282906,-121.985678
PAST SALE,May-31-2018,Single Family Residential,4810 Grimsby Dr,SAN JOSE,CA,95130,1600000,4,2.0,SAN JOSE,1604,5436,1963,1288,998,,Sold,,,https://www.redfin.com/CA/San-Jose/4810-Grimsby-Dr-95130/home/1861190,MLSListings,ML81701380,N,Y,37.2800417,-121.9860778
PAST SALE,August-15-2017,Single Family Residential,4941 Harmony Way,SAN JOSE,CA,95130,1460000,3,2.0,SAN JOSE,1250,6000,1958,1577,1168,,Sold,,,https://www.redfin.com/CA/San-Jose/4941-Harmony-Way-95130/home/839760,MLSListings,ML81670162,N,Y,37.2860527,-121.9882101
PAST SALE,,Single Family Residential,4499 Madoc Way,San Jose,CA,95130,1760000,4,2.0,,1596,6029,1959,,1103,,,,,https://www.redfin.com/CA/San-Jose/4499-Madoc-Way-95130/home/887237,,,N,Y,37.2822725,-121.9814132
PAST SALE,June-22-2018,Single Family Residential,4523 Madoc Way,SAN JOSE,CA,95130,1460000,4,2.0,SAN JOSE,1602,6058,1959,1266,911,,Sold,,,https://www.redfin.com/CA/San-Jose/4523-Madoc-Way-95130/home/1765348,MLSListings,ML81707078,N,Y,37.2822019,-121.9818352
PAST SALE,April-28-2017,Single Family Residential,4434 Grimsby Dr,SAN JOSE,CA,95130,1510000,5,2.0,SAN JOSE,1867,6011,1962,1686,809,,Sold,,,https://www.redfin.com/CA/San-Jose/4434-Grimsby-Dr-95130/home/747043,MLSListings,ML81644499,N,Y,37.2802787,-121.9801685
PAST SALE,June-17-2019,Single Family Residential,4416 Grimsby Dr,SAN JOSE,CA,95130,1360000,3,2.0,SAN JOSE,1110,6142,1962,906,1225,,Sold,,,https://www.redfin.com/CA/San-Jose/4416-Grimsby-Dr-95130/home/812192,MLSListings,ML81748874,N,Y,37.2803347,-121.9798582
PAST SALE,May-24-2017,Single Family Residential,2226 Weston Dr,SAN JOSE,CA,95130,1200000,3,2.0,SAN JOSE,1388,6400,1959,1660,865,,Sold,,,https://www.redfin.com/CA/San-Jose/2226-Weston-Dr-95130/home/1765349,MLSListings,ML81648344,N,Y,37.2816241,-121.9792585
PAST SALE,October-28-2019,Single Family Residential,4809 Alex Dr,SAN JOSE,CA,95130,1405000,4,2.0,SAN JOSE,1433,5532,1964,773,980,,Sold,,,https://www.redfin.com/CA/San-Jose/4809-Alex-Dr-95130/home/1532192,MLSListings,ML81764379,N,Y,37.2797727,-121.9857224
PAST SALE,July-19-2018,Single Family Residential,4849 Alex Dr,SAN JOSE,CA,95130,1640000,4,2.5,SAN JOSE,1557,5856,1963,1239,1053,,Sold,,,https://www.redfin.com/CA/San-Jose/4849-Alex-Dr-95130/home/872493,MLSListings,ML81708638,N,Y,37.2797869,-121.9862999
PAST SALE,December-7-2018,Single Family Residential,4467 Alex Dr,SAN JOSE,CA,95130,1450000,4,2.0,SAN JOSE,1538,6099,1962,1098,943,,Sold,,,https://www.redfin.com/CA/San-Jose/4467-Alex-Dr-95130/home/812196,MLSListings,ML81729677,N,Y,37.2799863,-121.9803914
PAST SALE,June-14-2017,Single Family Residential,4494 Norwich Way,SAN JOSE,CA,95130,1350000,3,2.0,SAN JOSE,1163,5973,1959,1639,1161,,Sold,,,https://www.redfin.com/CA/San-Jose/4494-Norwich-Way-95130/home/946194,MLSListings,ML81652510,N,Y,37.2825357,-121.9814132
PAST SALE,April-14-2020,Single Family Residential,4460 Norwich Way,SAN JOSE,CA,95130,1406000,3,2.0,SAN JOSE,1302,6036,1959,604,1080,,Sold,,,https://www.redfin.com/CA/San-Jose/4460-Norwich-Way-95130/home/813185,MLSListings,ML81785859,N,Y,37.2824839,-121.9808356
PAST SALE,April-19-2017,Single Family Residential,4475 Madoc Way,SAN JOSE,CA,95130,1180000,3,1.0,SAN JOSE,1036,5974,1959,1695,1139,,Sold,,,https://www.redfin.com/CA/San-Jose/4475-Madoc-Way-95130/home/813197,MLSListings,ML81643079,N,Y,37.2822667,-121.9810578
PAST SALE,June-15-2021,Single Family Residential,5012 Mccoy Ave,SAN JOSE,CA,95130,1330002,3,1.0,SAN JOSE,1036,6088,1959,177,1284,,Sold,,,https://www.redfin.com/CA/San-Jose/5012-McCoy-Ave-95130/home/839798,MLSListings,ML81844094,N,Y,37.2760034,-121.9882545
PAST SALE,August-13-2021,Single Family Residential,4813 Montreal Dr,SAN JOSE,CA,95130,1900000,4,2.0,SAN JOSE,1302,6195,1959,118,1459,,Sold,,,https://www.redfin.com/CA/San-Jose/4813-Montreal-Dr-95130/home/814171,MLSListings,ML81853238,N,Y,37.2758308,-121.9854558
PAST SALE,October-21-2019,Single Family Residential,5197 Tisdale Way,SAN JOSE,CA,95130,1355000,3,2.0,SAN JOSE,1127,6300,1960,780,1202,,Sold,,,https://www.redfin.com/CA/San-Jose/5197-Tisdale-Way-95130/home/813975,MLSListings,ML81758595,N,Y,37.2749737,-121.991675
PAST SALE,April-13-2018,Single Family Residential,5149 Betlo Ct,SAN JOSE,CA,95130,1850000,4,2.0,SAN JOSE,1700,6902,1964,1336,1088,,Sold,,,https://www.redfin.com/CA/San-Jose/5149-Betlo-Ct-95130/home/814310,MLSListings,ML81693522,N,Y,37.2820186,-121.9914974
PAST SALE,December-10-2016,Single Family Residential,5165 Shalen Ct,SAN JOSE,CA,95130,1250000,3,2.0,SAN JOSE,1287,10000,1963,1825,971,,Sold,,,https://www.redfin.com/CA/San-Jose/5165-Shalen-Ct-95130/home/665138,MLSListings,ML81632672,N,Y,37.2827398,-121.9917861
PAST SALE,March-21-2019,Single Family Residential,2164 Arleen Way,SAN JOSE,CA,95130,1590000,4,3.0,SAN JOSE,1676,6373,1958,994,949,,Sold,,,https://www.redfin.com/CA/San-Jose/2164-Arleen-Way-95130/home/814299,MLSListings,ML81738124,N,Y,37.2822691,-121.9921637
PAST SALE,April-30-2020,Single Family Residential,2255 Chaparral Ave,SAN JOSE,CA,95130,1548000,3,2.0,SAN JOSE,1639,6845,1965,588,944,,Sold,,,https://www.redfin.com/CA/San-Jose/2255-Chaparral-Ave-95130/home/813662,MLSListings,ML81784079,N,Y,37.2812819,-121.9893873
PAST SALE,October-20-2020,Single Family Residential,2275 Chaparral Ave,SAN JOSE,CA,95130,1410000,4,2.0,SAN JOSE,1630,5457,1963,415,865,,Sold,,,https://www.redfin.com/CA/San-Jose/2275-Chaparral-Ave-95130/home/1063090,MLSListings,ML81811699,N,Y,37.2807008,-121.9883212
PAST SALE,July-14-2017,Single Family Residential,12826 Lantana Ave,SARATOGA,CA,95070,1650000,4,2.0,SARATOGA,2154,11100,1952,1609,766,,Sold,,,https://www.redfin.com/CA/Saratoga/12826-Lantana-Ave-95070/home/814750,MLSListings,ML81654717,N,Y,37.2817606,-121.9866109
PAST SALE,August-28-2017,Single Family Residential,2254 Chaparral Ave,SAN JOSE,CA,95130,1500000,4,2.0,SAN JOSE,1354,9100,1963,1564,1108,,Sold,,,https://www.redfin.com/CA/San-Jose/2254-Chaparral-Ave-95130/home/1614945,MLSListings,ML81671464,N,Y,37.2813819,-121.9887432
PAST SALE,June-4-2018,Single Family Residential,5140 Bobbie Ave,SAN JOSE,CA,95130,1675000,4,2.0,SAN JOSE,1354,6250,1963,1284,1237,,Sold,,,https://www.redfin.com/CA/San-Jose/5140-Bobbie-Ave-95130/home/814337,MLSListings,ML81702515,N,Y,37.2807954,-121.991253
PAST SALE,December-28-2020,Single Family Residential,2035 Paseo Olivos Ct,SAN JOSE,CA,95130,1900000,4,3.0,SAN JOSE,2195,8494,1961,346,866,,Sold,,,https://www.redfin.com/CA/San-Jose/2035-Paseo-Olivos-Ct-95130/home/1026427,MLSListings,ML81823141,N,Y,37.2844609,-121.989565
PAST SALE,November-20-2020,Single Family Residential,2043 Paseo Olivos Ct,SAN JOSE,CA,95130,1510000,3,2.0,SAN JOSE,1302,6921,1961,384,1160,,Sold,,,https://www.redfin.com/CA/San-Jose/2043-Paseo-Olivos-Ct-95130/home/1659879,MLSListings,ML81815370,N,Y,37.2841347,-121.9895872
PAST SALE,May-21-2019,Single Family Residential,5035 Bucknall Rd,SAN JOSE,CA,95130,1450000,4,3.0,SAN JOSE,1732,6011,1961,933,837,,Sold,,,https://www.redfin.com/CA/San-Jose/5035-Bucknall-Rd-95130/home/1431888,MLSListings,ML81747569,N,Y,37.2835321,-121.9896538
PAST SALE,,Single Family Residential,2072 Mayfield Ave,San Jose,CA,95130,1650000,3,2.0,,1518,7417,1960,,1087,,,,,https://www.redfin.com/CA/San-Jose/2072-Mayfield-Ave-95130/home/814763,,,N,Y,37.2839046,-121.9878547
PAST SALE,April-20-2017,Single Family Residential,2064 Mayfield Ave,SAN JOSE,CA,95130,1350000,3,2.0,SAN JOSE,1368,9000,1960,1694,987,,Sold,,,https://www.redfin.com/CA/San-Jose/2064-Mayfield-Ave-95130/home/1504747,MLSListings,ML81644116,N,Y,37.2840708,-121.987677
PAST SALE,March-4-2021,Single Family Residential,4885 Bucknall Rd,SAN JOSE,CA,95130,2350000,6,5.0,SAN JOSE,3422,10018,2007,280,687,,Sold,,,https://www.redfin.com/CA/San-Jose/4885-Bucknall-Rd-95130/home/1550648,MLSListings,ML81821557,N,Y,37.2836357,-121.9874993
PAST SALE,February-24-2020,Single Family Residential,5121 Bucknall Rd,SAN JOSE,CA,95130,1450000,1,1.5,SAN JOSE,1272,14400,1924,654,1140,,Sold,,,https://www.redfin.com/CA/San-Jose/5121-Bucknall-Rd-95130/home/569533,MLSListings,ML81780082,N,Y,37.2835622,-121.9913641
PAST SALE,October-17-2018,Single Family Residential,1979 Serge Ave,San Jose,CA,95130,1360000,3,2.0,San Jose Cc,1250,6820,1958,1149,1088,,Sold,,,https://www.redfin.com/CA/San-Jose/1979-Serge-Ave-95130/home/813755,"bridgeMLS, Bay East AOR, or Contra Costa AOR",40839249,N,Y,37.2860774,-121.9934963
PAST SALE,December-27-2019,Single Family Residential,4915 Mccoy Ave,SAN JOSE,CA,95130,1175000,3,2.0,SAN JOSE,1406,6324,1959,713,836,,Sold,,,https://www.redfin.com/CA/San-Jose/4915-McCoy-Ave-95130/home/984252,MLSListings,ML81773638,N,Y,37.2765428,-121.9868996
PAST SALE,October-9-2020,Single Family Residential,4912 Morden Dr,SAN JOSE,CA,95130,2135000,4,2.5,SAN JOSE,2028,6007,2015,426,1053,,Sold,,,https://www.redfin.com/CA/San-Jose/4912-Morden-Dr-95130/home/1326669,MLSListings,ML81807674,N,Y,37.27679,-121.9870773
PAST SALE,April-4-2017,Single Family Residential,2671 La Salle Way,SAN JOSE,CA,95130,1600000,4,3.0,SAN JOSE,2157,8520,1960,1710,742,,Sold,,,https://www.redfin.com/CA/San-Jose/2671-La-Salle-Way-95130/home/1476548,MLSListings,ML81643240,N,Y,37.2738906,-121.9919638
PAST SALE,June-12-2018,Single Family Residential,5172 Yorkton Way,San Jose,CA,95130,2000000,4,3.0,San Jose,2484,6151,2001,1276,805,,Sold,,,https://www.redfin.com/CA/San-Jose/5172-Yorkton-Way-95130/home/1264657,BAREIS,21808430,N,Y,37.2734809,-121.9917639
PAST SALE,,Single Family Residential,5158 Yorkton Way,San Jose,CA,95130,1200000,3,2.0,,1173,6035,1960,,1023,,,,,https://www.redfin.com/CA/San-Jose/5158-Yorkton-Way-95130/home/1659908,,,N,Y,37.2735465,-121.9916084
PAST SALE,August-4-2021,Single Family Residential,5121 Montreal Dr,SAN JOSE,CA,95130,1675000,3,2.0,SAN JOSE,1201,5770,1959,127,1395,,Sold,,,https://www.redfin.com/CA/San-Jose/5121-Montreal-Dr-95130/home/1345561,MLSListings,ML81851388,N,Y,37.2757215,-121.9905645
PAST SALE,December-31-2018,Single Family Residential,5197 Halifax Dr,SAN JOSE,CA,95130,1485000,3,2.0,SAN JOSE,1523,6060,1960,1074,975,,Sold,,,https://www.redfin.com/CA/San-Jose/5197-Halifax-Dr-95130/home/861683,MLSListings,ML81729195,N,Y,37.2732069,-121.991675
PAST SALE,May-27-2020,Single Family Residential,5255 Halifax Dr,SAN JOSE,CA,95130,1460000,4,2.0,SAN JOSE,1302,6234,1960,561,1121,,Sold,,,https://www.redfin.com/CA/San-Jose/5255-Halifax-Dr-95130/home/814103,MLSListings,ML81790257,N,Y,37.2728025,-121.9925191
PAST SALE,July-18-2018,Single Family Residential,5265 Halifax Dr,SAN JOSE,CA,95130,1580000,3,2.0,SAN JOSE,1531,5966,1960,1240,1032,,Sold,,,https://www.redfin.com/CA/San-Jose/5265-Halifax-Dr-95130/home/1697490,MLSListings,ML81710479,N,Y,37.2727732,-121.9927412
PAST SALE,August-27-2021,Single Family Residential,5048 Kingston Way,San Jose,CA,95130,1700000,3,2.0,Sunny Haven,1144,6516,1960,104,1486,,Sold,,,https://www.redfin.com/CA/San-Jose/5048-Kingston-Way-95130/home/1217235,"bridgeMLS, Bay East AOR, or Contra Costa AOR",40959327,N,Y,37.2730084,-121.9895872
PAST SALE,February-8-2021,Single Family Residential,2504 Neville Ave,SAN JOSE,CA,95130,1725000,4,3.0,SAN JOSE,1868,5867,1964,304,923,,Sold,,,https://www.redfin.com/CA/San-Jose/2504-Neville-Ave-95130/home/1579993,MLSListings,ML81824225,N,Y,37.2771503,-121.9799471
PAST SALE,July-8-2019,Single Family Residential,4895 Vanderbilt Dr,SAN JOSE,CA,95130,1200000,3,2.0,SAN JOSE,1181,5702,1963,885,1016,,Sold,,,https://www.redfin.com/CA/San-Jose/4895-Vanderbilt-Dr-95130/home/1203293,MLSListings,ML81750999,N,Y,37.2790542,-121.9866109
PAST SALE,August-16-2018,Single Family Residential,4798 Alex Dr,SAN JOSE,CA,95130,1646000,3,2.0,SAN JOSE,1514,5385,1963,1211,1087,,Sold,,,https://www.redfin.com/CA/San-Jose/4798-Alex-Dr-95130/home/1201457,MLSListings,ML81715251,N,Y,37.2793764,-121.9854781
PAST SALE,May-15-2017,Single Family Residential,2424 Verwood Dr,SAN JOSE,CA,95130,1375000,3,2.0,SAN JOSE,1407,5974,1964,1669,977,,Sold,,,https://www.redfin.com/CA/San-Jose/2424-Verwood-Dr-95130/home/816215,MLSListings,ML81647155,N,Y,37.2783732,-121.9808801
PAST SALE,May-23-2017,Single Family Residential,2445 Verwood Dr,SAN JOSE,CA,95130,1448000,3,2.0,SAN JOSE,1204,6148,1964,1661,1203,,Sold,,,https://www.redfin.com/CA/San-Jose/2445-Verwood-Dr-95130/home/665249,MLSListings,ML81648792,N,Y,37.2778987,-121.9814576
PAST SALE,January-4-2017,Single Family Residential,2465 Verwood Dr,SAN JOSE,CA,95130,1200000,3,2.0,SAN JOSE,1087,6042,1963,1800,1104,,Sold,,,https://www.redfin.com/CA/San-Jose/2465-Verwood-Dr-95130/home/816225,MLSListings,ML81632030,N,Y,37.2773992,-121.9813687
PAST SALE,March-22-2021,Single Family Residential,2410 Le Bain Dr,SAN JOSE,CA,95130,1710000,3,2.0,SAN JOSE,1127,5985,1961,262,1517,,Sold,,,https://www.redfin.com/CA/San-Jose/2410-Le-Bain-Dr-95130/home/1500962,MLSListings,ML81830290,N,Y,37.2786939,-121.981813
PAST SALE,August-31-2021,Single Family Residential,2067 Heather Glen Dr,SAN JOSE,CA,95130,2200000,4,2.5,SAN JOSE,2256,3142,2005,100,975,82,Sold,,,https://www.redfin.com/CA/San-Jose/2067-Heather-Glen-Dr-95130/home/2122037,MLSListings,ML81852148,N,Y,37.285165,-121.9854781
PAST SALE,,Single Family Residential,5248 Bobbie Ave,San Jose,CA,95130,1750000,4,2.0,,1289,11579,1958,,1358,,,,,https://www.redfin.com/CA/San-Jose/5248-Bobbie-Ave-95130/home/701178,,,N,Y,37.2807644,-121.9935407
PAST SALE,June-20-2017,Single Family Residential,1627 Duvall Dr,SAN JOSE,CA,95130,1110000,3,2.0,SAN JOSE,1400,6468,1960,1633,793,,Sold,,,https://www.redfin.com/CA/San-Jose/1627-Duvall-Dr-95130/home/1673216,MLSListings,ML81650671,N,Y,37.2931198,-121.9822128
PAST SALE,April-29-2019,Single Family Residential,1631 Fallbrook Ave,SAN JOSE,CA,95130,1750000,4,2.5,SAN JOSE,2575,7009,1962,955,680,,Sold,,,https://www.redfin.com/CA/San-Jose/1631-Fallbrook-Ave-95130/home/1547248,MLSListings,ML81738980,N,Y,37.2924343,-121.9813687
PAST SALE,July-11-2019,Single Family Residential,4280 Latimer Ave,SAN JOSE,CA,95130,1240000,3,2.0,SAN JOSE,1293,5849,1965,882,959,,Sold,,,https://www.redfin.com/CA/San-Jose/4280-Latimer-Ave-95130/home/756779,MLSListings,ML81756050,N,Y,37.2917281,-121.9789697
PAST SALE,May-14-2021,Single Family Residential,4232 Latimer Ave,SAN JOSE,CA,95130,1600000,3,2.0,SAN JOSE,1217,6210,1962,209,1315,,Sold,,,https://www.redfin.com/CA/SAN-JOSE/4232-LATIMER-AVE-95130/home/755350,MLSListings,ML81838908,N,Y,37.290925,-121.977902
PAST SALE,June-23-2017,Single Family Residential,4034 Payne Ave,SAN JOSE,CA,95117,1200006,3,2.0,SAN JOSE,1248,6098,1958,1630,962,,Sold,,,https://www.redfin.com/CA/San-Jose/4034-Payne-Ave-95117/home/1121367,MLSListings,ML81652176,N,Y,37.3007425,-121.9719945
PAST SALE,July-31-2018,Single Family Residential,4015 Ribbon Dr,SAN JOSE,CA,95130,1215000,2,1.0,SAN JOSE,988,6770,1958,1227,1230,,Sold,,,https://www.redfin.com/CA/San-Jose/4015-Ribbon-Dr-95130/home/1154612,MLSListings,ML81711906,N,Y,37.300502,-121.971808
PAST SALE,March-26-2018,Single Family Residential,1658 Beck Dr,SAN JOSE,CA,95130,1810000,4,3.0,SAN JOSE,1889,6900,1961,1354,958,,Sold,,,https://www.redfin.com/CA/San-Jose/1658-Beck-Dr-95130/home/1442798,MLSListings,ML81693302,N,Y,37.2924718,-121.9714391
PAST SALE,March-25-2019,Single Family Residential,1673 Beck Dr,SAN JOSE,CA,95130,1180000,3,3.0,SAN JOSE,1680,7012,1961,990,702,,Sold,,,https://www.redfin.com/CA/San-Jose/1673-Beck-Dr-95130/home/692163,MLSListings,ML81739074,N,Y,37.2921598,-121.9720389
PAST SALE,November-1-2021,Single Family Residential,2154 Arleen Way,SAN JOSE,CA,95130,2021000,5,2.0,SAN JOSE,2064,6411,1958,38,979,,Sold,,,https://www.redfin.com/CA/San-Jose/2154-Arleen-Way-95130/home/1504733,MLSListings,ML81864208,N,Y,37.2824194,-121.9921637
PAST SALE,May-7-2018,Single Family Residential,1741 Hayford Dr,SAN JOSE,CA,95130,1626678,4,2.0,SAN JOSE,1507,6234,1964,1312,1079,,Sold,,,https://www.redfin.com/CA/San-Jose/1741-Hayford-Dr-95130/home/758439,MLSListings,ML81698633,N,Y,37.2911072,-121.9740382
PAST SALE,July-21-2017,Single Family Residential,327 Cloverdale Ln,CAMPBELL,CA,95008,1660000,4,2.5,CAMPBELL,2015,10000,1956,1602,824,,Sold,,,https://www.redfin.com/CA/Campbell/327-Cloverdale-Ln-95008/home/1658494,MLSListings,ML81655717,N,Y,37.2909879,-121.9730608
PAST SALE,April-18-2019,Single Family Residential,3909 Latimer Ave,SAN JOSE,CA,95130,1688888,4,4.0,SAN JOSE,1855,8019,1965,966,910,,Sold,,,https://www.redfin.com/CA/San-Jose/3909-W-Latimer-Ave-95130/home/1515677,MLSListings,ML81740348,N,Y,37.2910682,-121.9707949
PAST SALE,July-22-2019,Single Family Residential,398 Cloverdale Ln,CAMPBELL,CA,95008,1455000,3,2.0,CAMPBELL,1639,10377,1953,871,888,,Sold,,,https://www.redfin.com/CA/CAMPBELL/398-CLOVERDALE-LN-95008/home/759591,MLSListings,ML81756012,N,Y,37.291844,-121.972409
PAST SALE,February-26-2021,Single Family Residential,1746 Mendenhall Dr,SAN JOSE,CA,95130,1700000,4,2.5,SAN JOSE,2391,7641,1964,286,711,,Sold,,,https://www.redfin.com/CA/San-Jose/1746-Mendenhall-Dr-95130/home/759607,MLSListings,ML81825932,N,Y,37.29093,-121.974341
PAST SALE,January-11-2018,Single Family Residential,1747 Hayford Dr,SAN JOSE,CA,95130,1575000,4,3.0,SAN JOSE,2111,7592,2001,1428,746,,Sold,,,https://www.redfin.com/CA/San-Jose/1747-Hayford-Dr-95130/home/1673733,MLSListings,ML81686091,N,Y,37.2909448,-121.974016
PAST SALE,October-30-2017,Townhouse,613 Marathon Dr,CAMPBELL,CA,95008,687000,2,1.5,CAMPBELL,953,1104,1978,1501,721,450,Sold,,,https://www.redfin.com/CA/Campbell/613-Marathon-Dr-95008/home/1549906,MLSListings,ML81680119,N,Y,37.295591,-121.965706
PAST SALE,November-16-2017,Townhouse,601 Marathon Dr,CAMPBELL,CA,95008,700000,2,1.5,CAMPBELL,953,1560,1978,1484,735,450,Sold,,,https://www.redfin.com/CA/Campbell/601-Marathon-Dr-95008/home/757464,MLSListings,ML81681644,N,Y,37.295592,-121.965451
PAST SALE,July-19-2021,Single Family Residential,5141 Tisdale Way,SAN JOSE,CA,95130,1760000,3,2.0,SAN JOSE,1127,6093,1960,143,1562,,Sold,,,https://www.redfin.com/CA/San-Jose/5141-Tisdale-Way-95130/home/1861208,MLSListings,ML81849407,N,Y,37.2750181,-121.9906533
PAST SALE,May-23-2018,Single Family Residential,4464 Bucknall Rd,SAN JOSE,CA,95130,1350000,3,1.0,SAN JOSE,1036,6102,1959,1296,1303,,Sold,,,https://www.redfin.com/CA/San-Jose/4464-Bucknall-Rd-95130/home/839761,MLSListings,ML81702257,N,Y,37.2832599,-121.9808801
PAST SALE,August-19-2021,Single Family Residential,1696 Mendenhall Dr,SAN JOSE,CA,95130,1800000,4,3.0,SAN JOSE,1717,6240,1964,112,1048,,Sold,,,https://www.redfin.com/CA/San-Jose/1696-Mendenhall-Dr-95130/home/1545439,MLSListings,ML81852655,N,Y,37.29194,-121.9743937
PAST SALE,August-30-2021,Single Family Residential,5164 Halifax Dr,SAN JOSE,CA,95130,1975000,4,2.0,SAN JOSE,1610,6847,1960,101,1227,,Sold,,,https://www.redfin.com/CA/San-Jose/5164-Halifax-Dr-95130/home/1193206,MLSListings,ML81854387,N,Y,37.2730367,-121.9907422
PAST SALE,April-17-2019,Single Family Residential,3982 Hamilton Park Dr,SAN JOSE,CA,95130,1449000,4,2.0,SAN JOSE,1528,6099,1967,967,948,,Sold,,,https://www.redfin.com/CA/San-Jose/3982-Hamilton-Park-Dr-95130/home/756726,MLSListings,ML81742250,N,Y,37.295507,-121.9725943
PAST SALE,June-24-2020,Single Family Residential,2331 Camrose Ave,SAN JOSE,CA,95130,1405000,5,2.5,SAN JOSE,1557,5997,1963,533,902,,Sold,,,https://www.redfin.com/CA/San-Jose/2331-Camrose-Ave-95130/home/1568177,MLSListings,ML81798113,N,Y,37.2797018,-121.9881435
PAST SALE,November-12-2021,Single Family Residential,2025 Woodglen Dr,SAN JOSE,CA,95130,2047500,4,2.5,SAN JOSE,2302,3719,2005,27,889,82,Sold,,,https://www.redfin.com/CA/San-Jose/2025-Woodglen-Dr-95130/home/2121809,MLSListings,ML81865688,N,Y,37.2856426,-121.9847275
PAST SALE,February-15-2019,Single Family Residential,12795 Lantana Ave,SARATOGA,CA,95070,1510000,3,2.0,SARATOGA,1525,10087,1952,1028,990,,Sold,,,https://www.redfin.com/CA/Saratoga/12795-Lantana-Ave-95070/home/171931813,MLSListings,ML81736725,N,Y,37.2822258,-121.9871884
PAST SALE,September-1-2021,Single Family Residential,1346 Rosalia Ave,SAN JOSE,CA,95130,1702800,3,2.0,SAN JOSE,1530,10361,1949,99,1113,,Sold,,,https://www.redfin.com/CA/San-Jose/1346-Rosalia-Ave-95130/home/663825,MLSListings,ML81853153,N,Y,37.2997466,-121.9743048
PAST SALE,,Single Family Residential,2405 Neville Ave,San Jose,CA,95130,1700000,3,2.0,,1045,6592,1961,,1627,,,,,https://www.redfin.com/CA/San-Jose/2405-Neville-Ave-95130/home/1244719,,,N,Y,37.2788427,-121.9805691
PAST SALE,May-15-2018,Single Family Residential,5246 Halifax Dr,SAN JOSE,CA,95130,1600000,3,2.0,SAN JOSE,1163,6099,1960,1304,1376,,Sold,,,https://www.redfin.com/CA/San-Jose/5246-Halifax-Dr-95130/home/1727060,MLSListings,ML81700184,N,Y,37.2723322,-121.9922081
PAST SALE,February-11-2021,Single Family Residential,5025 Tiberan Way,SAN JOSE,CA,95130,1740000,4,2.0,SAN JOSE,1421,10938,1958,301,1224,,Sold,,,https://www.redfin.com/CA/San-Jose/5025-Tiberan-Way-95130/home/1264590,MLSListings,ML81827029,N,Y,37.2870747,-121.9898093
PAST SALE,August-14-2020,Single Family Residential,2153 Chesley Dr,SAN JOSE,CA,95130,1342000,3,2.0,SAN JOSE,1256,6016,1963,482,1068,,Sold,,,https://www.redfin.com/CA/San-Jose/2153-Chesley-Dr-95130/home/955727,MLSListings,ML81801497,N,Y,37.2825329,-121.9835456
PAST SALE,December-29-2019,Single Family Residential,2269 Chesley Dr,SAN JOSE,CA,95130,1220000,3,2.0,SAN JOSE,1230,5830,1963,711,992,,Sold,,,https://www.redfin.com/CA/San-Jose/2269-Chesley-Dr-95130/home/1107187,MLSListings,ML81756086,N,Y,37.2808923,-121.9835012
PAST SALE,June-18-2018,Single Family Residential,4625 Norwich Way,SAN JOSE,CA,95130,1420000,4,2.0,SAN JOSE,1354,5641,1963,1270,1049,,Sold,,,https://www.redfin.com/CA/San-Jose/4625-Norwich-Way-95130/home/811803,MLSListings,ML81700873,N,Y,37.2829839,-121.9835456
PAST SALE,August-28-2017,Single Family Residential,2241 Datoro Dr,SAN JOSE,CA,95130,1465000,4,2.0,SAN JOSE,1354,5500,1963,1564,1082,,Sold,,,https://www.redfin.com/CA/San-Jose/2241-Datoro-Dr-95130/home/1516989,MLSListings,ML81670400,N,Y,37.28141,-121.9852781
PAST SALE,May-20-2020,Single Family Residential,5067 Tiberan Way,SAN JOSE,CA,95130,1725000,4,2.0,SAN JOSE,1911,7452,1958,568,903,,Sold,,,https://www.redfin.com/CA/San-Jose/5067-Tiberan-Way-95130/home/1259271,MLSListings,ML81786312,N,Y,37.2868257,-121.9903868
PAST SALE,April-16-2019,Single Family Residential,5022 Tiberan Way,SAN JOSE,CA,95130,1653000,4,2.0,SAN JOSE,1460,8512,1958,968,1132,,Sold,,,https://www.redfin.com/CA/San-Jose/5022-Tiberan-Way-95130/home/1402249,MLSListings,ML81742830,N,Y,37.2868994,-121.989143
PAST SALE,June-20-2019,Single Family Residential,5022 Northlawn Dr,SAN JOSE,CA,95130,1541666,4,2.0,SAN JOSE,1460,7562,1958,903,1056,,Sold,,,https://www.redfin.com/CA/San-Jose/5022-Northlawn-Dr-95130/home/1026296,MLSListings,ML81751748,N,Y,37.2856101,-121.9897427
PAST SALE,January-29-2019,Single Family Residential,5001 Elmwood Dr,SAN JOSE,CA,95130,1432500,3,2.0,SAN JOSE,1250,7200,1958,1045,1146,,Sold,,,https://www.redfin.com/CA/San-Jose/5001-Elmwood-Dr-95130/home/1298800,MLSListings,ML81736911,N,Y,37.2877964,-121.9894095
PAST SALE,,Single Family Residential,5095 Elmwood Dr,San Jose,CA,95130,1325000,3,2.0,,1250,8077,1958,,1060,,,,,https://www.redfin.com/CA/San-Jose/5095-Elmwood-Dr-95130/home/811768,,,N,Y,37.2877719,-121.990837
PAST SALE,January-25-2019,Single Family Residential,4947 Elmwood Dr,SAN JOSE,CA,95130,1305000,3,2.0,SAN JOSE,1250,8160,1958,1049,1044,,Sold,,,https://www.redfin.com/CA/San-Jose/4947-Elmwood-Dr-95130/home/1356459,MLSListings,ML81716810,N,Y,37.2878371,-121.9885877
PAST SALE,February-16-2017,Single Family Residential,275 S San Tomas Aquino Rd,CAMPBELL,CA,95008,1350000,3,1.0,CAMPBELL,1095,11250,1950,1757,1233,,Sold,,,https://www.redfin.com/CA/Campbell/275-S-San-Tomas-Aquino-Rd-95008/home/1184220,MLSListings,ML81637712,N,Y,37.2802755,-121.9776813
PAST SALE,December-10-2019,Single Family Residential,4690 Grimsby Dr,SAN JOSE,CA,95130,1268000,4,2.0,SAN JOSE,1354,6203,1963,730,936,,Sold,,,https://www.redfin.com/CA/San-Jose/4690-Grimsby-Dr-95130/home/1451894,MLSListings,ML81774218,N,Y,37.2801865,-121.9837233
PAST SALE,October-23-2020,Single Family Residential,4441 Norwich Way,SAN JOSE,CA,95130,1360000,3,2.0,SAN JOSE,1163,5994,1959,412,1169,,Sold,,,https://www.redfin.com/CA/San-Jose/4441-Norwich-Way-95130/home/1285555,MLSListings,ML81807986,N,Y,37.2829801,-121.9804358
PAST SALE,July-6-2017,Single Family Residential,2284 Dorval Dr,SAN JOSE,CA,95130,1515000,3,2.0,SAN JOSE,1566,5995,1959,1617,967,,Sold,,,https://www.redfin.com/CA/San-Jose/2284-Dorval-Dr-95130/home/1098107,MLSListings,ML81654720,N,Y,37.2809045,-121.9782145
PAST SALE,September-1-2020,Single Family Residential,4462 Madoc Way,SAN JOSE,CA,95130,1226762,3,2.0,SAN JOSE,1758,5958,1959,464,698,,Sold,,,https://www.redfin.com/CA/San-Jose/4462-Madoc-Way-95130/home/813209,MLSListings,ML81789924,N,Y,37.2818341,-121.9807468
PAST SALE,,Single Family Residential,4491 Grimsby Dr,San Jose,CA,95130,1150000,3,1.0,,1388,6133,1959,,829,,,,,https://www.redfin.com/CA/San-Jose/4491-Grimsby-Dr-95130/home/1365828,,,N,Y,37.2807351,-121.9812132
PAST SALE,June-7-2017,Single Family Residential,4551 Grimsby Dr,SAN JOSE,CA,95130,1390000,4,2.0,SAN JOSE,1302,5995,1959,1646,1068,,Sold,,,https://www.redfin.com/CA/San-Jose/4551-Grimsby-Dr-95130/home/701124,MLSListings,ML81650603,N,Y,37.2806665,-121.9821906
PAST SALE,August-31-2020,Single Family Residential,4529 Tilbury Dr,SAN JOSE,CA,95130,1420000,3,2.0,SAN JOSE,1201,5993,1959,465,1182,,Sold,,,https://www.redfin.com/CA/San-Jose/4529-Tilbury-Dr-95130/home/812086,MLSListings,ML81802583,N,Y,37.2814501,-121.9818352
PAST SALE,July-12-2019,Single Family Residential,4537 Alex Dr,SAN JOSE,CA,95130,1250000,3,2.5,SAN JOSE,1641,6206,1962,881,762,,Sold,,,https://www.redfin.com/CA/San-Jose/4537-Alex-Dr-95130/home/1614906,MLSListings,ML81753753,N,Y,37.2799846,-121.9811466
PAST SALE,August-15-2018,Single Family Residential,4517 Vanderbilt Dr,SAN JOSE,CA,95130,1460000,4,2.0,SAN JOSE,1322,5929,1961,1212,1104,,Sold,,,https://www.redfin.com/CA/San-Jose/4517-Vanderbilt-Dr-95130/home/812223,MLSListings,ML81714897,N,Y,37.2792378,-121.9808801
PAST SALE,March-23-2021,Single Family Residential,4585 Vanderbilt Dr,SAN JOSE,CA,95130,1299000,3,2.0,SAN JOSE,1201,6357,1961,261,1082,,Sold,,,https://www.redfin.com/CA/San-Jose/4585-Vanderbilt-Dr-95130/home/1345536,MLSListings,ML81828927,N,Y,37.279231,-121.9819018
PAST SALE,November-9-2017,Single Family Residential,5034 Mccoy Ave,SAN JOSE,CA,95130,1440000,3,2.0,SAN JOSE,1127,5959,1959,1491,1278,,Sold,,,https://www.redfin.com/CA/San-Jose/5034-McCoy-Ave-95130/home/802116,MLSListings,ML81680581,N,Y,37.2760296,-121.9888542
PAST SALE,November-25-2020,Single Family Residential,4790 Mccoy Ave,SAN JOSE,CA,95130,1410000,3,2.0,SAN JOSE,1201,6031,1959,379,1174,,Sold,,,https://www.redfin.com/CA/San-Jose/4790-McCoy-Ave-95130/home/635173,MLSListings,ML81815167,N,Y,37.2761015,-121.985056
PAST SALE,September-25-2020,Single Family Residential,4764 McCoy Ave,SAN JOSE,CA,95130,1445000,4,2.0,SAN JOSE,1302,6132,1959,440,1110,,Sold,,,https://www.redfin.com/CA/San-Jose/4764-McCoy-Ave-95130/home/996881,MLSListings,ML81809534,N,Y,37.2761091,-121.9846562
PAST SALE,July-22-2020,Single Family Residential,4791 Montreal Dr,SAN JOSE,CA,95130,1491000,3,2.0,SAN JOSE,1462,6011,1959,505,1020,,Sold,,,https://www.redfin.com/CA/San-Jose/4791-Montreal-Dr-95130/home/1755552,MLSListings,ML81797489,N,Y,37.2758262,-121.9850338
PAST SALE,August-7-2018,Single Family Residential,2158 Quito Rd,SAN JOSE,CA,95130,1550000,4,3.0,SAN JOSE,1897,6217,1958,1220,817,,Sold,,,https://www.redfin.com/CA/San-Jose/2158-Quito-Rd-95130/home/802141,MLSListings,ML81710819,N,Y,37.2822335,-121.9940294
PAST SALE,March-14-2017,Single Family Residential,2216 Tamie Ln,SAN JOSE,CA,95130,1080000,3,1.5,SAN JOSE,1153,6136,1958,1731,937,,Sold,,,https://www.redfin.com/CA/San-Jose/2216-Tamie-Ln-95130/home/813364,MLSListings,ML81637495,N,Y,37.2814633,-121.9930299
PAST SALE,July-8-2020,Single Family Residential,2174 Tamie Ln,SAN JOSE,CA,95130,1450000,3,2.0,SAN JOSE,1469,6240,1958,519,987,,Sold,,,https://www.redfin.com/CA/San-Jose/2174-Tamie-Ln-95130/home/1753781,MLSListings,ML81793083,N,Y,37.282101,-121.9930965
PAST SALE,June-29-2017,Single Family Residential,5054 Betlo Ct,SAN JOSE,CA,95130,1421000,4,2.0,SAN JOSE,1354,7370,1963,1624,1049,,Sold,,,https://www.redfin.com/CA/San-Jose/5054-Betlo-Ct-95130/home/946227,MLSListings,ML81654076,N,Y,37.2815286,-121.9902535
PAST SALE,June-19-2017,Single Family Residential,5048 Bucknall Rd,SAN JOSE,CA,95130,1160000,3,2.0,SAN JOSE,1602,5600,1963,1634,724,,Sold,,,https://www.redfin.com/CA/San-Jose/5048-Bucknall-Rd-95130/home/1179286,MLSListings,ML81652451,N,Y,37.2831123,-121.989987
PAST SALE,March-8-2019,Single Family Residential,4825 Grimsby Dr,SAN JOSE,CA,95130,1300000,3,2.0,SAN JOSE,1181,5610,1963,1007,1101,,Sold,,,https://www.redfin.com/CA/San-Jose/4825-Grimsby-Dr-95130/home/1614936,MLSListings,ML81737055,N,Y,37.2804985,-121.9864332
PAST SALE,,Single Family Residential,5126 Paseo Olivos,San Jose,CA,95130,1485000,3,2.0,,2008,5694,1960,,740,,,,,https://www.redfin.com/CA/San-Jose/5126-Paseo-Olivos-95130/home/1431871,,,N,Y,37.2848217,-121.991675
PAST SALE,June-29-2017,Single Family Residential,2062 Quito Rd,SAN JOSE,CA,95130,1200000,4,2.0,SAN JOSE,2000,6156,1960,1624,600,,Sold,,,https://www.redfin.com/CA/San-Jose/2062-Quito-Rd-95130/home/1184279,MLSListings,ML81650647,N,Y,37.2840618,-121.9940738
PAST SALE,April-26-2017,Single Family Residential,2296 Lantana Ave,SAN JOSE,CA,95130,1600000,4,2.5,SAN JOSE,1557,11136,1965,1688,1028,,Sold,,,https://www.redfin.com/CA/San-Jose/2296-Lantana-Ave-95130/home/814757,MLSListings,ML81644827,N,Y,37.2807833,-121.9866109
PAST SALE,May-14-2020,Single Family Residential,5231 Bucknall Rd,SAN JOSE,CA,95130,1375000,4,2.0,SAN JOSE,1480,6166,1960,574,929,,Sold,,,https://www.redfin.com/CA/San-Jose/5231-Bucknall-Rd-95130/home/1418785,MLSListings,ML81785168,N,Y,37.2835196,-121.9929411
PAST SALE,July-10-2018,Single Family Residential,2080 Colusa Way,SAN JOSE,CA,95130,1661500,4,2.0,SAN JOSE,1969,6844,1960,1248,844,,Sold,,,https://www.redfin.com/CA/San-Jose/2080-Colusa-Way-95130/home/1121946,MLSListings,ML81704958,N,Y,37.2837898,-121.9932298
PAST SALE,July-2-2021,Single Family Residential,5172 Paseo Olivos,SAN JOSE,CA,95130,2030000,3,2.0,SAN JOSE,1548,6566,1960,160,1311,,Sold,,,https://www.redfin.com/CA/San-Jose/5172-Paseo-Olivos-95130/home/1179300,MLSListings,ML81846418,N,Y,37.2847389,-121.9920748
PAST SALE,December-29-2017,Single Family Residential,5013 Mccoy Ave,SAN JOSE,CA,95130,1626000,4,2.0,SAN JOSE,1302,5916,1959,1441,1249,,Sold,,,https://www.redfin.com/CA/San-Jose/5013-McCoy-Ave-95130/home/813876,MLSListings,ML81686304,N,Y,37.2765163,-121.988299
PAST SALE,October-2-2020,Single Family Residential,1917 Ashland Way,SAN JOSE,CA,95130,1850000,4,2.0,SAN JOSE,1889,7440,1958,433,979,,Sold,,,https://www.redfin.com/CA/San-Jose/1917-Ashland-Way-95130/home/1500902,MLSListings,ML81808173,N,Y,37.2871112,-121.9924968
PAST SALE,June-19-2020,Single Family Residential,5136 Northlawn Dr,SAN JOSE,CA,95130,1650000,4,2.0,SAN JOSE,1654,6340,1958,538,998,,Sold,,,https://www.redfin.com/CA/San-Jose/5136-Northlawn-Dr-95130/home/1579944,MLSListings,ML81791959,N,Y,37.2854982,-121.991675
PAST SALE,March-29-2019,Single Family Residential,5110 Northlawn Dr,SAN JOSE,CA,95130,1430550,3,2.0,SAN JOSE,1250,7064,1958,986,1144,,Sold,,,https://www.redfin.com/CA/San-Jose/5110-Northlawn-Dr-95130/home/1282492,MLSListings,ML81738028,N,Y,37.2855007,-121.9915418
PAST SALE,May-14-2021,Single Family Residential,5265 Elmwood Dr,SAN JOSE,CA,95130,1800000,4,2.0,SAN JOSE,1421,7690,1958,209,1267,,Sold,,,https://www.redfin.com/CA/San-Jose/5265-Elmwood-Dr-95130/home/1151476,MLSListings,ML81838251,N,Y,37.2876743,-121.9931854
PAST SALE,January-9-2018,Single Family Residential,2473 Ottawa Way,SAN JOSE,CA,95130,1950000,4,2.5,SAN JOSE,2014,6293,1959,1430,968,,Sold,,,https://www.redfin.com/CA/San-Jose/2473-Ottawa-Way-95130/home/1500921,MLSListings,ML81685663,N,Y,37.277562,-121.9860111
PAST SALE,May-6-2019,Single Family Residential,2436 Grandby Dr,SAN JOSE,CA,95130,1910000,4,3.0,SAN JOSE,2014,6231,1959,948,948,,Sold,,,https://www.redfin.com/CA/San-Jose/2436-Grandby-Dr-95130/home/1259325,MLSListings,ML81742498,N,Y,37.2781801,-121.9864554
PAST SALE,June-17-2020,Single Family Residential,4805 Mccoy Ave,SAN JOSE,CA,95130,1380000,3,1.5,SAN JOSE,1684,6497,1959,540,819,,Sold,,,https://www.redfin.com/CA/San-Jose/4805-McCoy-Ave-95130/home/813871,MLSListings,ML81788239,N,Y,37.2766215,-121.9853892
PAST SALE,November-30-2018,Single Family Residential,2496 Villanova Rd,SAN JOSE,CA,95130,1470000,4,2.0,SAN JOSE,1302,6496,1959,1105,1129,,Sold,,,https://www.redfin.com/CA/San-Jose/2496-Villanova-Rd-95130/home/814878,MLSListings,ML81722280,N,Y,37.2771994,-121.9892763
PAST SALE,April-14-2021,Single Family Residential,4874 Morden Dr,SAN JOSE,CA,95130,1651000,3,2.0,SAN JOSE,1201,6340,1959,239,1375,,Sold,,,https://www.redfin.com/CA/San-Jose/4874-Morden-Dr-95130/home/1294762,MLSListings,ML81832569,N,Y,37.2768357,-121.9859889
PAST SALE,July-18-2017,Single Family Residential,5011 Paseo Olivos,SAN JOSE,CA,95130,1472000,4,2.0,SAN JOSE,1302,5720,1961,1605,1131,,Sold,,,https://www.redfin.com/CA/San-Jose/5011-Paseo-Olivos-95130/home/1193195,MLSListings,ML81667409,N,Y,37.2852757,-121.9895428
PAST SALE,November-30-2017,Single Family Residential,4976 Paseo Olivos,SAN JOSE,CA,95130,1380000,3,2.0,SAN JOSE,1274,6650,1961,1470,1083,,Sold,,,https://www.redfin.com/CA/San-Jose/4976-Paseo-Olivos-95130/home/1659883,MLSListings,ML81682809,N,Y,37.2848482,-121.9889653
PAST SALE,February-22-2018,Single Family Residential,4983 Mccoy Ave,SAN JOSE,CA,95130,1563000,4,2.0,SAN JOSE,1302,5994,1959,1386,1200,,Sold,,,https://www.redfin.com/CA/San-Jose/4983-McCoy-Ave-95130/home/813874,MLSListings,ML81689054,N,Y,37.2765276,-121.9876992
PAST SALE,March-31-2017,Single Family Residential,2475 Grandby Dr,SAN JOSE,CA,95130,1200000,3,2.0,SAN JOSE,1127,6264,1959,1714,1065,,Sold,,,https://www.redfin.com/CA/San-Jose/2475-Grandby-Dr-95130/home/1701465,MLSListings,ML81637624,N,Y,37.2775189,-121.9869663
PAST SALE,March-13-2020,Single Family Residential,2442 Camrose Ave,SAN JOSE,CA,95130,1760000,3,2.0,SAN JOSE,1610,6271,1959,636,1093,,Sold,,,https://www.redfin.com/CA/San-Jose/2442-Camrose-Ave-95130/home/1427204,MLSListings,ML81781576,N,Y,37.2779866,-121.9874105
PAST SALE,March-5-2021,Single Family Residential,5152 Tisdale Way,SAN JOSE,CA,95130,1580000,3,2.0,SAN JOSE,1173,5958,1960,279,1347,,Sold,,,https://www.redfin.com/CA/San-Jose/5152-Tisdale-Way-95130/home/861681,MLSListings,ML81806630,N,Y,37.274539,-121.9908088
PAST SALE,February-22-2019,Single Family Residential,2443 Camrose Ave,SAN JOSE,CA,95130,1400000,4,2.0,SAN JOSE,1501,6264,1959,1021,933,,Sold,,,https://www.redfin.com/CA/San-Jose/2443-Camrose-Ave-95130/home/814948,MLSListings,ML81734322,N,Y,37.2779765,-121.9879436
PAST SALE,November-23-2020,Single Family Residential,5020 Montreal Dr,SAN JOSE,CA,95130,1530000,3,2.0,SAN JOSE,1127,6088,1959,381,1358,,Sold,,,https://www.redfin.com/CA/San-Jose/5020-Montreal-Dr-95130/home/1264644,MLSListings,ML81815962,N,Y,37.2753007,-121.9889653
PAST SALE,April-14-2021,Single Family Residential,5096 Tisdale Way,SAN JOSE,CA,95130,1640000,3,2.0,SAN JOSE,1127,5987,1959,239,1455,,Sold,,,https://www.redfin.com/CA/San-Jose/5096-Tisdale-Way-95130/home/1201447,MLSListings,ML81826918,N,Y,37.2745714,-121.9897649
PAST SALE,October-30-2020,Single Family Residential,5064 Kingston Way,SAN JOSE,CA,95130,1675000,3,2.0,SAN JOSE,1597,6482,1960,405,1049,,Sold,,,https://www.redfin.com/CA/San-Jose/5064-Kingston-Way-95130/home/734068,MLSListings,ML81813991,N,Y,37.2725765,-121.9898982
PAST SALE,October-11-2017,Single Family Residential,5135 Montreal Dr,SAN JOSE,CA,95130,1525000,3,2.0,SAN JOSE,1127,6000,1959,1520,1353,,Sold,,,https://www.redfin.com/CA/San-Jose/5135-Montreal-Dr-95130/home/815055,MLSListings,ML81677477,N,Y,37.2757298,-121.9907866
PAST SALE,April-16-2019,Single Family Residential,5065 Kingston Way,SAN JOSE,CA,95130,1658000,3,2.0,SAN JOSE,1382,6913,1960,968,1200,,Sold,,,https://www.redfin.com/CA/San-Jose/5065-Kingston-Way-95130/home/1568153,MLSListings,ML81741287,N,Y,37.2728697,-121.990298
PAST SALE,November-25-2020,Single Family Residential,5102 Kingston Way,SAN JOSE,CA,95130,1501111,4,2.0,SAN JOSE,1302,6382,1960,379,1153,,Sold,,,https://www.redfin.com/CA/San-Jose/5102-Kingston-Way-95130/home/1701467,MLSListings,ML81812104,N,Y,37.2721453,-121.990831
PAST SALE,January-11-2019,Single Family Residential,3708 Mauney Ct,SAN JOSE,CA,95130,1375000,4,2.0,SAN JOSE,1502,7107,1959,1063,915,,Sold,,,https://www.redfin.com/CA/San-Jose/3708-Mauney-Ct-95130/home/886065,MLSListings,ML81732441,N,Y,37.2993661,-121.9672626
PAST SALE,February-19-2020,Single Family Residential,5068 Kingston Way,SAN JOSE,CA,95130,1592000,4,2.0,SAN JOSE,1673,6708,1960,659,952,,Sold,,,https://www.redfin.com/CA/San-Jose/5068-Kingston-Way-95130/home/1337692,MLSListings,ML81777798,N,Y,37.2724478,-121.9900759
PAST SALE,,Single Family Residential,2627 Camloop Dr,San Jose,CA,95130,1501000,4,2.0,,1322,5975,1961,,1135,,,,,https://www.redfin.com/CA/San-Jose/2627-Camloop-Dr-95130/home/1259360,,,N,Y,37.2747563,-121.9872772
PAST SALE,,Single Family Residential,4911 Kingston Way,San Jose,CA,95130,2010000,4,3.0,,1972,6487,1961,,1019,,,,,https://www.redfin.com/CA/San-Jose/4911-Kingston-Way-95130/home/815165,,,N,Y,37.2732599,-121.9855669
PAST SALE,May-4-2018,Single Family Residential,4927 Kingston Way,SAN JOSE,CA,95130,2080000,4,3.0,SAN JOSE,1801,6710,1961,1315,1155,,Sold,,,https://www.redfin.com/CA/San-Jose/4927-Kingston-Way-95130/home/1740798,MLSListings,ML81697931,N,Y,37.2733301,-121.9858334
PAST SALE,March-25-2019,Single Family Residential,4969 Kingston Way,SAN JOSE,CA,95130,1720000,4,3.0,SAN JOSE,1767,6300,1962,990,973,,Sold,,,https://www.redfin.com/CA/San-Jose/4969-Kingston-Way-95130/home/1231230,MLSListings,ML81739414,N,Y,37.2735635,-121.9867441
PAST SALE,April-30-2021,Single Family Residential,4869 Manitoba Dr,SAN JOSE,CA,95130,2050000,4,3.0,SAN JOSE,1902,6334,1961,223,1078,,Sold,,,https://www.redfin.com/CA/San-Jose/4869-Manitoba-Dr-95130/home/1684813,MLSListings,ML81834248,N,Y,37.2740264,-121.9854558
PAST SALE,September-28-2017,Single Family Residential,2634 Camloop Dr,SAN JOSE,CA,95130,1625000,3,2.0,SAN JOSE,1681,6060,1961,1533,967,,Sold,,,https://www.redfin.com/CA/San-Jose/2634-Camloop-Dr-95130/home/1383562,MLSListings,ML81676174,N,Y,37.2745663,-121.9867219
PAST SALE,November-6-2019,Single Family Residential,4866 Bannock Cir,SAN JOSE,CA,95130,1260000,3,2.0,SAN JOSE,1110,6054,1961,764,1135,,Sold,,,https://www.redfin.com/CA/San-Jose/4866-Bannock-Cir-95130/home/814637,MLSListings,ML81768819,N,Y,37.275248,-121.9864554
PAST SALE,August-28-2018,Single Family Residential,4804 Bannock Cir,SAN JOSE,CA,95130,1400000,3,2.0,SAN JOSE,1045,6097,1962,1199,1340,,Sold,,,https://www.redfin.com/CA/San-Jose/4804-Bannock-Cir-95130/home/1740735,MLSListings,ML81713743,N,Y,37.2742741,-121.984945
PAST SALE,July-12-2019,Single Family Residential,4772 Bannock Cir,SAN JOSE,CA,95130,1385000,4,2.0,SAN JOSE,1322,8109,1961,881,1048,,Sold,,,https://www.redfin.com/CA/San-Jose/4772-Bannock-Cir-95130/home/1119608,MLSListings,ML81750778,N,Y,37.2744542,-121.9840343
PAST SALE,July-22-2019,Single Family Residential,4847 Bannock Cir,SAN JOSE,CA,95130,1465000,4,2.0,SAN JOSE,1498,6759,1959,871,978,,Sold,,,https://www.redfin.com/CA/San-Jose/4847-Bannock-Cir-95130/home/815236,MLSListings,ML81756936,N,Y,37.2748834,-121.9858557
PAST SALE,,Single Family Residential,4865 Bannock Cir,San Jose,CA,95130,1750000,5,2.0,,1863,6118,1959,,939,,,,,https://www.redfin.com/CA/San-Jose/4865-Bannock-Cir-95130/home/814640,,,N,Y,37.2752097,-121.9858334
PAST SALE,October-22-2020,Single Family Residential,4950 Kingston Way,SAN JOSE,CA,95130,1445000,3,2.0,SAN JOSE,1110,6126,1961,413,1302,,Sold,,,https://www.redfin.com/CA/San-Jose/4950-Kingston-Way-95130/home/816950,MLSListings,ML81809475,N,Y,37.2730422,-121.9864776
PAST SALE,February-20-2019,Single Family Residential,4966 Kingston Way,SAN JOSE,CA,95130,1230000,3,2.0,SAN JOSE,1087,6327,1961,1023,1132,,Sold,,,https://www.redfin.com/CA/San-Jose/4966-Kingston-Way-95130/home/793069,MLSListings,ML81733657,N,Y,37.273185,-121.9868774
PAST SALE,November-27-2018,Single Family Residential,2620 Meta Dr,SAN JOSE,CA,95130,1515000,3,2.0,SAN JOSE,1528,5863,1962,1108,991,,Sold,,,https://www.redfin.com/CA/San-Jose/2620-Meta-Dr-95130/home/1063169,MLSListings,ML81720209,N,Y,37.2749109,-121.9830791
PAST SALE,June-28-2019,Single Family Residential,2554 Meta Dr,SAN JOSE,CA,95130,1412500,3,2.0,SAN JOSE,1380,6262,1961,895,1024,,Sold,,,https://www.redfin.com/CA/San-Jose/2554-Meta-Dr-95130/home/887507,MLSListings,ML81750436,N,Y,37.2762374,-121.983168
PAST SALE,February-25-2021,Single Family Residential,2350 Villanova Rd,SAN JOSE,CA,95130,1680000,5,3.0,SAN JOSE,1557,5827,1965,287,1079,,Sold,,,https://www.redfin.com/CA/San-Jose/2350-Villanova-Rd-95130/home/1541688,MLSListings,ML81826618,N,Y,37.279428,-121.9893651
PAST SALE,April-1-2021,Single Family Residential,2315 Grimsby Ct,SAN JOSE,CA,95130,1874000,4,2.0,SAN JOSE,1799,5520,1965,252,1042,,Sold,,,https://www.redfin.com/CA/San-Jose/2315-Grimsby-Ct-95130/home/816088,MLSListings,ML81828951,N,Y,37.2798854,-121.9890319
PAST SALE,December-14-2020,Single Family Residential,2450 Neville Ave,SAN JOSE,CA,95130,1800000,4,3.0,SAN JOSE,1753,5994,1963,360,1027,,Sold,,,https://www.redfin.com/CA/San-Jose/2450-Neville-Ave-95130/home/814603,MLSListings,ML81819822,N,Y,37.2780525,-121.9799471
PAST SALE,,Single Family Residential,4758 Alex Dr,San Jose,CA,95130,1280000,4,2.0,,1600,5612,1963,,800,,,,,https://www.redfin.com/CA/San-Jose/4758-Alex-Dr-95130/home/816080,,,N,Y,37.2793865,-121.984945
PAST SALE,July-11-2017,Single Family Residential,4732 Alex Dr,SAN JOSE,CA,95130,1515000,4,2.0,SAN JOSE,1354,5600,1963,1612,1119,,Sold,,,https://www.redfin.com/CA/San-Jose/4732-Alex-Dr-95130/home/1098117,MLSListings,ML81654934,N,Y,37.279382,-121.9845229
PAST SALE,April-28-2021,Single Family Residential,4785 Vanderbilt Dr,SAN JOSE,CA,95130,1680000,3,2.0,SAN JOSE,1256,5602,1963,225,1338,,Sold,,,https://www.redfin.com/CA/San-Jose/4785-Vanderbilt-Dr-95130/home/830649,MLSListings,ML81834351,N,Y,37.2791405,-121.9847006
PAST SALE,,Single Family Residential,4602 Lage Dr,San Jose,CA,95130,1000000,4,2.0,,1302,8315,1961,,768,,,,,https://www.redfin.com/CA/San-Jose/4602-Lage-Dr-95130/home/816237,,,N,Y,37.2769622,-121.9819463
PAST SALE,September-23-2020,Single Family Residential,2497 Rossotto Dr,SAN JOSE,CA,95130,1275000,3,1.0,SAN JOSE,1036,6088,1959,442,1231,,Sold,,,https://www.redfin.com/CA/San-Jose/2497-Rossotto-Dr-95130/home/1359904,MLSListings,ML81805628,N,Y,37.2770776,-121.9851227
PAST SALE,December-29-2020,Single Family Residential,4737 Denevi Dr,SAN JOSE,CA,95130,1600000,3,2.0,SAN JOSE,1201,6103,1961,345,1332,,Sold,,,https://www.redfin.com/CA/San-Jose/4737-Denevi-Dr-95130/home/984298,MLSListings,ML81820548,N,Y,37.2780739,-121.9841231
PAST SALE,December-14-2018,Single Family Residential,2435 Denevi Dr,SAN JOSE,CA,95130,1610000,4,3.0,SAN JOSE,1588,6486,1961,1091,1014,,Sold,,,https://www.redfin.com/CA/San-Jose/2435-Denevi-Dr-95130/home/1251450,MLSListings,ML81731044,N,Y,37.2780902,-121.9832568
PAST SALE,May-22-2018,Single Family Residential,2428 Rossotto Dr,SAN JOSE,CA,95130,1475000,3,2.0,SAN JOSE,1163,6148,1961,1297,1268,,Sold,,,https://www.redfin.com/CA/San-Jose/2428-Rossotto-Dr-95130/home/1472646,MLSListings,ML81701585,N,Y,37.2783658,-121.9845896
PAST SALE,March-7-2017,Single Family Residential,2451 Neville Ave,SAN JOSE,CA,95130,1310000,3,2.0,SAN JOSE,1322,5974,1964,1738,991,,Sold,,,https://www.redfin.com/CA/San-Jose/2451-Neville-Ave-95130/home/1701475,MLSListings,ML81638009,N,Y,37.2780157,-121.9805691
PAST SALE,February-1-2021,Single Family Residential,2459 Neville Ave,SAN JOSE,CA,95130,1500000,3,2.0,SAN JOSE,1204,5974,1964,311,1246,,Sold,,,https://www.redfin.com/CA/San-Jose/2459-Neville-Ave-95130/home/816212,MLSListings,ML81823991,N,Y,37.2778787,-121.9805246
PAST SALE,July-8-2019,Single Family Residential,2008 Heather Glen Dr,SAN JOSE,CA,95130,1720000,4,3.0,SAN JOSE,2051,2694,2006,885,839,95,Sold,,,https://www.redfin.com/CA/San-Jose/2008-Heather-Glen-Dr-95130/home/2124178,MLSListings,ML81757647,N,Y,37.286318,-121.9854558
PAST SALE,June-30-2020,Single Family Residential,4543 Mccoy Ave,SAN JOSE,CA,95130,1999999,4,2.5,SAN JOSE,2398,6276,2005,527,834,,Sold,,,https://www.redfin.com/CA/San-Jose/4543-McCoy-Ave-95130/home/1289264,MLSListings,ML81794161,N,Y,37.2767071,-121.9808578
PAST SALE,April-15-2020,Single Family Residential,2170 Weston Dr,SAN JOSE,CA,95130,1035000,3,1.0,SAN JOSE,1036,5982,1959,603,999,,Sold,,,https://www.redfin.com/CA/San-Jose/2170-Weston-Dr-95130/home/1674697,MLSListings,ML81787190,N,Y,37.2824256,-121.9792807
PAST SALE,March-29-2021,Single Family Residential,2148 Weston Dr,SAN JOSE,CA,95130,1275000,3,1.0,SAN JOSE,1036,5996,1959,255,1231,,Sold,,,https://www.redfin.com/CA/San-Jose/2148-Weston-Dr-95130/home/772989,MLSListings,ML81828028,N,Y,37.2827748,-121.9793696
PAST SALE,,Single Family Residential,2138 Weston Dr,San Jose,CA,95130,1350000,3,2.0,,1163,6031,1959,,1161,,,,,https://www.redfin.com/CA/San-Jose/2138-Weston-Dr-95130/home/815510,,,N,Y,37.2829251,-121.9793696
PAST SALE,April-16-2018,Single Family Residential,1331 Vernal Dr,San Jose,CA,95130,1500000,3,3.0,San Jose,1600,6100,1958,1333,938,,Sold,,,https://www.redfin.com/CA/San-Jose/1331-Vernal-Dr-95130/home/1425615,CRMLS,180011958,N,Y,37.2996911,-121.9739272
PAST SALE,August-21-2017,Single Family Residential,1780 Castro Dr,SAN JOSE,CA,95130,1288800,4,2.0,SAN JOSE,1551,6000,1967,1571,831,,Sold,,,https://www.redfin.com/CA/San-Jose/1780-Castro-Dr-95130/home/1837601,MLSListings,ML81669295,N,Y,37.2895178,-121.9805691
PAST SALE,September-30-2019,Single Family Residential,4452 Norwich Way,SAN JOSE,CA,95130,1380000,3,2.0,SAN JOSE,1563,5951,1959,801,883,,Sold,,,https://www.redfin.com/CA/San-Jose/4452-Norwich-Way-95130/home/1427141,MLSListings,ML81765549,N,Y,37.2825374,-121.9806579
PAST SALE,September-27-2018,Single Family Residential,1562 Parkview Ave,SAN JOSE,CA,95130,1310000,3,2.0,SAN JOSE,1239,7950,1959,1169,1057,,Sold,,,https://www.redfin.com/CA/San-Jose/1562-Parkview-Ave-95130/home/1549830,MLSListings,ML81718308,N,Y,37.2945288,-121.9819018
PAST SALE,January-22-2021,Single Family Residential,4774 Parkwest Dr,SAN JOSE,CA,95130,1350000,3,2.0,SAN JOSE,1232,6232,1958,321,1096,,Sold,,,https://www.redfin.com/CA/San-Jose/4774-Parkwest-Dr-95130/home/1475768,MLSListings,ML81817420,N,Y,37.2945095,-121.986211
PAST SALE,December-13-2018,Single Family Residential,1646 Duvall Dr,SAN JOSE,CA,95130,1150000,4,2.0,SAN JOSE,1400,7000,1960,1092,821,,Sold,,,https://www.redfin.com/CA/San-Jose/1646-Duvall-Dr-95130/home/1530850,MLSListings,ML81722358,N,Y,37.292444,-121.9828348
PAST SALE,April-13-2018,Single Family Residential,4599 Student Ln,SAN JOSE,CA,95130,1825000,4,2.0,SAN JOSE,1671,7180,1962,1336,1092,,Sold,,,https://www.redfin.com/CA/San-Jose/4599-Student-Ln-95130/home/1034992,MLSListings,ML81696047,N,Y,37.2899534,-121.9833679
PAST SALE,May-22-2020,Single Family Residential,4636 Mossbrook Cir,SAN JOSE,CA,95130,1675000,4,2.0,SAN JOSE,1671,7782,1963,566,1002,,Sold,,,https://www.redfin.com/CA/San-Jose/4636-Mossbrook-Cir-95130/home/1673221,MLSListings,ML81793612,N,Y,37.2894741,-121.9822128
PAST SALE,June-4-2018,Single Family Residential,1628 Fallbrook Ave,SAN JOSE,CA,95130,1575000,3,2.0,SAN JOSE,1321,7914,1962,1284,1192,,Sold,,,https://www.redfin.com/CA/San-Jose/1628-Fallbrook-Ave-95130/home/1859551,MLSListings,ML81703738,N,Y,37.2920769,-121.9810578
PAST SALE,September-22-2017,Single Family Residential,4675 Mossbrook Cir,SAN JOSE,CA,95130,1695000,4,2.0,SAN JOSE,1671,9780,1963,1539,1014,,Sold,,,https://www.redfin.com/CA/San-Jose/4675-Mossbrook-Cir-95130/home/1061696,MLSListings,ML81674090,N,Y,37.290296,-121.9824794
PAST SALE,March-18-2020,Single Family Residential,1777 Duvall Dr,SAN JOSE,CA,95130,1305000,3,2.0,SAN JOSE,1066,5926,1958,631,1224,,Sold,,,https://www.redfin.com/CA/San-Jose/1777-Duvall-Dr-95130/home/1549845,MLSListings,ML81782247,N,Y,37.2897397,-121.9866997
PAST SALE,May-29-2019,Single Family Residential,1720 Fallbrook Ave,SAN JOSE,CA,95130,1530000,5,3.0,SAN JOSE,2336,6324,1958,925,655,,Sold,,,https://www.redfin.com/CA/San-Jose/1720-Fallbrook-Ave-95130/home/886056,MLSListings,ML81749367,N,Y,37.2911987,-121.9831013
PAST SALE,June-15-2018,Single Family Residential,1711 Mossbrook Ave,SAN JOSE,CA,95130,1798000,4,2.0,SAN JOSE,1785,6666,1963,1273,1007,,Sold,,,https://www.redfin.com/CA/San-Jose/1711-Mossbrook-Ave-95130/home/1306764,MLSListings,ML81704442,N,Y,37.2912088,-121.9825682
PAST SALE,November-30-2018,Single Family Residential,1828 Castro Dr,SAN JOSE,CA,95130,1400000,3,2.0,SAN JOSE,1873,6000,1967,1105,747,,Sold,,,https://www.redfin.com/CA/San-Jose/1828-Castro-Dr-95130/home/1777165,MLSListings,ML81725031,N,Y,37.2887484,-121.981502
PAST SALE,January-14-2021,Single Family Residential,4258 COLOMBO Dr,SAN JOSE,CA,95130,1799000,4,2.0,SAN JOSE,1993,9348,1957,329,903,,Sold,,,https://www.redfin.com/CA/San-Jose/4258-Colombo-Dr-95130/home/1662412,MLSListings,ML81820630,N,Y,37.29605,-121.977671
PAST SALE,May-22-2018,Single Family Residential,1438 Vallejo Dr,SAN JOSE,CA,95130,1515000,3,2.0,SAN JOSE,1207,7252,1958,1297,1255,,Sold,,,https://www.redfin.com/CA/San-Jose/1438-Vallejo-Dr-95130/home/1264653,MLSListings,ML81702263,N,Y,37.2979364,-121.9792585
PAST SALE,February-5-2021,Single Family Residential,1426 Vallejo Dr,SAN JOSE,CA,95130,2060000,6,4.0,SAN JOSE,3441,6808,1958,307,599,,Sold,,,https://www.redfin.com/CA/San-Jose/1426-Vallejo-Dr-95130/home/1673686,MLSListings,ML81823438,N,Y,37.2981682,-121.9789253
PAST SALE,April-4-2018,Single Family Residential,1475 Lamore Dr,SAN JOSE,CA,95130,1820000,4,3.5,SAN JOSE,2333,7350,1958,1345,780,,Sold,,,https://www.redfin.com/CA/San-Jose/1475-Lamore-Dr-95130/home/1534534,MLSListings,ML81695035,N,Y,37.2972597,-121.9779479
PAST SALE,April-14-2017,Single Family Residential,1420 Lamore Dr,SAN JOSE,CA,95130,1265000,3,2.0,SAN JOSE,1543,7490,1958,1700,820,,Sold,,,https://www.redfin.com/CA/San-Jose/1420-Lamore-Dr-95130/home/663790,MLSListings,ML81641776,N,Y,37.2986483,-121.9773926
PAST SALE,March-12-2020,Single Family Residential,1380 Garrans Dr,SAN JOSE,CA,95130,1485000,3,2.0,SAN JOSE,1368,6300,1958,637,1086,,Sold,,,https://www.redfin.com/CA/San-Jose/1380-Garrans-Dr-95130/home/757031,MLSListings,ML81781703,N,Y,37.2989123,-121.9793251
PAST SALE,,Single Family Residential,1334 Garrans Dr,San Jose,CA,95130,1512000,3,2.0,,1368,7767,1958,,1105,,,,,https://www.redfin.com/CA/San-Jose/1334-Garrans-Dr-95130/home/757047,,,N,Y,37.299828,-121.9772815
PAST SALE,December-28-2018,Single Family Residential,1449 San Tomas Aquino Rd,SAN JOSE,CA,95130,1245000,4,3.0,SAN JOSE,1542,6300,1958,1077,807,,Sold,,,https://www.redfin.com/CA/San-Jose/1449-San-Tomas-Aquino-Rd-95130/home/755461,MLSListings,ML81726865,N,Y,37.2973392,-121.9770593
PAST SALE,June-5-2017,Single Family Residential,1536 Lamore Dr,SAN JOSE,CA,95130,1400000,3,2.5,SAN JOSE,1505,6000,1959,1648,930,,Sold,,,https://www.redfin.com/CA/San-Jose/1536-Lamore-Dr-95130/home/1061712,MLSListings,ML81649867,N,Y,37.2955741,-121.9789253
PAST SALE,December-21-2017,Single Family Residential,1360 San Tomas Aquino Rd,SAN JOSE,CA,95130,1290000,3,2.0,SAN JOSE,1068,10370,1949,1449,1208,,Sold,,,https://www.redfin.com/CA/San-Jose/1360-San-Tomas-Aquino-Rd-95130/home/1814925,MLSListings,ML81685364,N,Y,37.2995438,-121.9764151
PAST SALE,February-10-2020,Single Family Residential,1336 San Tomas Aquino Rd,SAN JOSE,CA,95130,1770000,4,3.0,SAN JOSE,2553,10510,1952,668,693,,Sold,,,https://www.redfin.com/CA/San-Jose/1336-San-Tomas-Aquino-Rd-95130/home/757083,MLSListings,ML81778335,N,Y,37.3000202,-121.9763929
PAST SALE,January-4-2017,Single Family Residential,1303 Flora Ave,SAN JOSE,CA,95130,1051000,3,2.0,SAN JOSE,1496,10248,1950,1800,703,,Sold,,,https://www.redfin.com/CA/San-Jose/1303-Flora-Ave-95130/home/1754305,MLSListings,ML81632790,N,Y,37.3006934,-121.9759042
PAST SALE,November-9-2017,Single Family Residential,1021 Carola Ave,SAN JOSE,CA,95130,1600000,4,3.0,SAN JOSE,2243,10125,1949,1491,713,,Sold,,,https://www.redfin.com/CA/San-Jose/1021-Carola-Ave-95130/home/925895,MLSListings,ML81682296,N,Y,37.2970891,-121.9743937
PAST SALE,December-30-2016,Single Family Residential,1314 Flora Ave,San Jose,CA,95130,1210000,4,3.0,San Jose,2345,10413,1952,1805,516,,Sold,,,https://www.redfin.com/CA/San-Jose/1314-Flora-Ave-95130/home/771806,"bridgeMLS, Bay East AOR, or Contra Costa AOR",40766417,N,Y,37.3004659,-121.9753489
PAST SALE,May-12-2021,Single Family Residential,1512 Pyramid Ct,SAN JOSE,CA,95130,1550000,3,2.0,SAN JOSE,1346,6151,1968,211,1152,,Sold,,,https://www.redfin.com/CA/San-Jose/1512-Pyramid-Ct-95130/home/758137,MLSListings,ML81837252,N,Y,37.2965155,-121.9729275
PAST SALE,July-1-2019,Single Family Residential,4098 Moreland Way,SAN JOSE,CA,95130,1700000,3,2.0,SAN JOSE,1716,10095,1950,892,991,,Sold,,,https://www.redfin.com/CA/San-Jose/4098-Moreland-Way-95130/home/757101,MLSListings,ML81754035,N,Y,37.2975184,-121.9742159
PAST SALE,December-31-2020,Single Family Residential,4056 Moreland Way,SAN JOSE,CA,95130,1450000,4,3.0,SAN JOSE,2047,10140,1949,343,708,,Sold,,,https://www.redfin.com/CA/San-Jose/4056-Moreland-Way-95130/home/756681,MLSListings,ML81817282,N,Y,37.2975519,-121.9731052
PAST SALE,April-6-2021,Single Family Residential,4171 Hamilton Park Dr,SAN JOSE,CA,95130,1900000,4,2.0,SAN JOSE,1922,6160,1967,247,989,,Sold,,,https://www.redfin.com/CA/San-Jose/4171-Hamilton-Park-Dr-95130/home/1191133,MLSListings,ML81830662,N,Y,37.2959338,-121.9758598
PAST SALE,April-7-2020,Single Family Residential,1469 Hartley Ct,SAN JOSE,CA,95130,1439000,3,2.0,SAN JOSE,1402,6581,1959,611,1026,,Sold,,,https://www.redfin.com/CA/San-Jose/1469-Hartley-Ct-95130/home/945031,MLSListings,ML81785456,N,Y,37.2969142,-121.9697285
PAST SALE,August-29-2018,Single Family Residential,1477 Hartley Ct,SAN JOSE,CA,95130,1462500,6,3.0,SAN JOSE,2283,6603,1959,1198,641,,Sold,,,https://www.redfin.com/CA/San-Jose/1477-Hartley-Ct-95130/home/1829937,MLSListings,ML81713701,N,Y,37.2967651,-121.9696619
PAST SALE,November-15-2019,Single Family Residential,3977 Yellowstone Dr,SAN JOSE,CA,95130,1290000,3,2.0,SAN JOSE,1288,6516,1960,755,1002,,Sold,,,https://www.redfin.com/CA/San-Jose/3977-Yellowstone-Dr-95130/home/757329,MLSListings,ML81771609,N,Y,37.2987632,-121.971328
PAST SALE,August-17-2020,Single Family Residential,1448 Clarita Ave,SAN JOSE,CA,95130,1510000,3,2.0,SAN JOSE,1648,6594,1950,479,916,,Sold,,,https://www.redfin.com/CA/San-Jose/1448-Clarita-Ave-95130/home/758168,MLSListings,ML81801399,N,Y,37.2977267,-121.9711503
PAST SALE,July-23-2018,Single Family Residential,1341 Vernal Dr,SAN JOSE,CA,95130,1550000,3,2.0,SAN JOSE,1429,6100,1958,1235,1085,,Sold,,,https://www.redfin.com/CA/San-Jose/1341-Vernal-Dr-95130/home/860572,MLSListings,ML81709721,N,Y,37.2995287,-121.9739049
PAST SALE,March-9-2017,Single Family Residential,1393 Vernal Dr,SAN JOSE,CA,95130,1070000,3,2.0,SAN JOSE,1144,6452,1958,1736,935,,Sold,,,https://www.redfin.com/CA/San-Jose/1393-Vernal-Dr-95130/home/758229,MLSListings,ML81639579,N,Y,37.2986643,-121.9739049
PAST SALE,November-16-2018,Single Family Residential,1538 Stockbridge Dr,SAN JOSE,CA,95130,1250000,3,2.0,SAN JOSE,1176,7720,1960,1119,1063,,Sold,,,https://www.redfin.com/CA/San-Jose/1538-Stockbridge-Dr-95130/home/995568,MLSListings,ML81725818,N,Y,37.2960301,-121.9701062
PAST SALE,March-22-2019,Single Family Residential,3701 Creager Ct,SAN JOSE,CA,95130,1360000,3,2.0,SAN JOSE,1600,7107,1959,993,850,,Sold,,,https://www.redfin.com/CA/San-Jose/3701-Creager-Ct-95130/home/757282,MLSListings,ML81736041,N,Y,37.3005434,-121.9672848
PAST SALE,November-5-2019,Single Family Residential,3675 Gleason Ave,SAN JOSE,CA,95130,1350000,3,2.0,SAN JOSE,1842,6504,1959,765,733,,Sold,,,https://www.redfin.com/CA/San-Jose/3675-Gleason-Ave-95130/home/1119517,MLSListings,ML81762532,N,Y,37.2977058,-121.9662851
PAST SALE,February-16-2017,Single Family Residential,3661 Mona Way,SAN JOSE,CA,95130,1350000,3,2.0,SAN JOSE,1512,6510,1965,1757,893,,Sold,,,https://www.redfin.com/CA/San-Jose/3661-Mona-Way-95130/home/692156,MLSListings,ML81635263,N,Y,37.2962371,-121.9651077
PAST SALE,April-1-2021,Single Family Residential,3658 Mona Way,SAN JOSE,CA,95130,1722500,3,2.0,SAN JOSE,1512,6131,1965,252,1139,,Sold,,,https://www.redfin.com/CA/San-Jose/3658-Mona-Way-95130/home/1565146,MLSListings,ML81829581,N,Y,37.2958261,-121.9649744
PAST SALE,May-7-2021,Single Family Residential,3658 Kendra Way,SAN JOSE,CA,95130,1852000,3,2.0,SAN JOSE,1346,7122,1965,216,1376,,Sold,,,https://www.redfin.com/CA/San-Jose/3658-Kendra-Way-95130/home/1083519,MLSListings,ML81840713,N,Y,37.2965219,-121.9652854
PAST SALE,December-2-2020,Single Family Residential,1360 Stockbridge Dr,SAN JOSE,CA,95130,1270000,3,3.0,SAN JOSE,1334,6018,1960,372,952,,Sold,,,https://www.redfin.com/CA/San-Jose/1360-Stockbridge-Dr-95130/home/1515633,MLSListings,ML81817717,N,Y,37.2995025,-121.9699951
PAST SALE,March-23-2018,Single Family Residential,1308 Piland Dr,SAN JOSE,CA,95130,1650000,4,2.0,SAN JOSE,1502,6340,1959,1357,1099,,Sold,,,https://www.redfin.com/CA/San-Jose/1308-Piland-Dr-95130/home/1545414,MLSListings,ML81693607,N,Y,37.3007038,-121.9667517
PAST SALE,March-11-2019,Single Family Residential,1315 Ladywood Ct,SAN JOSE,CA,95130,1325000,3,2.0,SAN JOSE,1575,9437,1974,1004,841,,Sold,,,https://www.redfin.com/CA/San-Jose/1315-Ladywood-Ct-95130/home/756402,MLSListings,ML81736825,N,Y,37.3000615,-121.9662629
PAST SALE,March-31-2021,Single Family Residential,3625 Countrywood Ct,SAN JOSE,CA,95130,2100000,4,3.0,SAN JOSE,2043,9096,1974,253,1028,,Sold,,,https://www.redfin.com/CA/San-Jose/3625-Countrywood-Ct-95130/home/756404,MLSListings,ML81830312,N,Y,37.2997888,-121.9661074
PAST SALE,November-15-2021,Single Family Residential,4410 Hilton Ave,SAN JOSE,CA,95130,1970000,3,2.0,SAN JOSE,1407,6000,1959,24,1400,,Sold,,,https://www.redfin.com/CA/San-Jose/4410-Hilton-Ave-95130/home/1336267,MLSListings,ML81865102,N,Y,37.2943037,-121.9799027
PAST SALE,November-15-2021,Single Family Residential,3736 Mauney Ct,SAN JOSE,CA,95130,2160000,3,2.5,SAN JOSE,1864,12578,1959,24,1159,,Sold,,,https://www.redfin.com/CA/San-Jose/3736-Mauney-Ct-95130/home/1764149,MLSListings,ML81866354,N,Y,37.2994313,-121.9677958
PAST SALE,November-16-2021,Single Family Residential,5164 Tisdale Way,SAN JOSE,CA,95130,1900000,3,2.0,SAN JOSE,1163,6185,1960,23,1634,,Sold,,,https://www.redfin.com/CA/San-Jose/5164-Tisdale-Way-95130/home/1098113,MLSListings,ML81866458,N,Y,37.2745607,-121.9909865
PAST SALE,September-29-2021,Single Family Residential,4608 Bucknall Rd,SAN JOSE,CA,95130,1730000,4,2.0,SAN JOSE,1433,6492,1964,71,1207,,Sold,,,https://www.redfin.com/CA/San-Jose/4608-Bucknall-Rd-95130/home/1107183,MLSListings,ML81858340,N,Y,37.2832241,-121.9834345
PAST SALE,February-27-2019,Single Family Residential,1381 Niagara Dr,SAN JOSE,CA,95130,1500000,3,2.0,SAN JOSE,1247,6048,1958,1016,1203,,Sold,,,https://www.redfin.com/CA/San-Jose/1381-Niagara-Dr-95130/home/847041,MLSListings,ML81736081,N,Y,37.298885,-121.9721722
PAST SALE,May-18-2018,Single Family Residential,1311 Poe Ln,SAN JOSE,CA,95130,1701000,4,3.5,SAN JOSE,1872,6051,1959,1301,909,,Sold,,,https://www.redfin.com/CA/San-Jose/1311-Poe-Ln-95130/home/1739585,MLSListings,ML81699315,N,Y,37.300498,-121.9696841
PAST SALE,October-2-2020,Single Family Residential,2316 Dorval Dr,SAN JOSE,CA,95130,1452000,3,2.0,SAN JOSE,1201,6272,1959,433,1209,,Sold,,,https://www.redfin.com/CA/San-Jose/2316-Dorval-Dr-95130/home/1444311,MLSListings,ML81809116,N,Y,37.2804534,-121.9782145
PAST SALE,July-10-2018,Single Family Residential,1644 Fallbrook Ave,SAN JOSE,CA,95130,1800000,4,3.0,SAN JOSE,2323,9800,1962,1248,775,,Sold,,,https://www.redfin.com/CA/San-Jose/1644-Fallbrook-Ave-95130/home/756270,MLSListings,ML81708655,N,Y,37.2919941,-121.9814576
PAST SALE,April-11-2018,Single Family Residential,5081 Bobbie Ave,SAN JOSE,CA,95130,1828000,4,2.0,SAN JOSE,1433,6428,1964,1338,1276,,Sold,,,https://www.redfin.com/CA/San-Jose/5081-Bobbie-Ave-95130/home/814323,MLSListings,ML81696006,N,Y,37.2812604,-121.9905201
PAST SALE,,Single Family Residential,1323 Vernal Dr,San Jose,CA,95130,1950000,3,3.0,,1740,6285,1958,,1121,,,,,https://www.redfin.com/CA/San-Jose/1323-Vernal-Dr-95130/home/1725641,,,N,Y,37.2998415,-121.9739272
PAST SALE,November-14-2018,Single Family Residential,4704 Mccoy Ave,SAN JOSE,CA,95130,1330000,3,2.0,SAN JOSE,1210,6615,1961,1121,1099,,Sold,,,https://www.redfin.com/CA/San-Jose/4704-McCoy-Ave-95130/home/1476538,MLSListings,ML81725012,N,Y,37.2761522,-121.9837011
PAST SALE,November-10-2021,Single Family Residential,5212 Northlawn Dr,SAN JOSE,CA,95130,1730000,3,2.0,SAN JOSE,1250,6000,1958,29,1384,,Sold,,,https://www.redfin.com/CA/San-Jose/5212-Northlawn-Dr-95130/home/814816,MLSListings,ML81864818,N,Y,37.2854855,-121.9923414
PAST SALE,March-4-2019,Single Family Residential,2415 Neville Ave,SAN JOSE,CA,95130,1365000,3,2.0,SAN JOSE,1204,5974,1964,1011,1134,,Sold,,,https://www.redfin.com/CA/San-Jose/2415-Neville-Ave-95130/home/1127025,MLSListings,ML81736324,N,Y,37.2786669,-121.9805913
PAST SALE,July-19-2018,Single Family Residential,17871 Los Alamos Dr,SARATOGA,CA,95070,1585000,5,4.5,SARATOGA,2965,10336,2019,1239,535,,Sold,,,https://www.redfin.com/CA/Saratoga/17871-Los-Alamos-Dr-95070/home/1534505,MLSListings,ML81711373,N,Y,37.296467,-121.983218
PAST SALE,September-19-2017,Single Family Residential,17950 Los Felice Dr,SARATOGA,CA,95070,1830000,4,3.0,SARATOGA,2154,10164,1950,1542,850,,Sold,,,https://www.redfin.com/CA/Saratoga/17950-Los-Felice-Dr-95070/home/1064482,MLSListings,ML81674364,N,Y,37.2960197,-121.9851893
PAST SALE,September-25-2020,Single Family Residential,2468 Villanova Rd,SAN JOSE,CA,95130,1750000,3,2.0,SAN JOSE,1612,6486,1959,440,1086,,Sold,,,https://www.redfin.com/CA/San-Jose/2468-Villanova-Rd-95130/home/814889,MLSListings,ML81806055,N,Y,37.2775001,-121.9892763
PAST SALE,May-7-2019,Single Family Residential,4896 Morden Dr,SAN JOSE,CA,95130,1375200,3,2.0,SAN JOSE,1127,7168,1959,947,1220,,Sold,,,https://www.redfin.com/CA/San-Jose/4896-Morden-Dr-95130/home/1548017,MLSListings,ML81745354,N,Y,37.2768281,-121.9863887
PAST SALE,November-12-2021,Single Family Residential,3611 Mona Way,SAN JOSE,CA,95130,1960000,3,2.0,SAN JOSE,1464,6424,1965,27,1339,,Sold,,,https://www.redfin.com/CA/San-Jose/3611-Mona-Way-95130/home/1604476,MLSListings,ML81860840,N,Y,37.2962308,-121.9634414
PAST SALE,June-12-2018,Townhouse,5104 Westmont Ave #8,SAN JOSE,CA,95130,930000,2,2.5,SAN JOSE,1105,433,1969,1276,842,399,Sold,,,https://www.redfin.com/CA/San-Jose/5104-Westmont-Ave-95130/unit-8/home/861707,MLSListings,ML81704402,N,Y,37.2716172,-121.9929739
PAST SALE,July-2-2021,Single Family Residential,5112 Bucknall Rd,SAN JOSE,CA,95130,1711000,4,2.0,SAN JOSE,1406,5710,1963,160,1217,,Sold,,,https://www.redfin.com/CA/San-Jose/5112-Bucknall-Rd-95130/home/650739,MLSListings,ML81845970,N,Y,37.2830774,-121.9911642
PAST SALE,June-21-2021,Single Family Residential,1428 Lamore Dr,SAN JOSE,CA,95130,2340000,5,3.5,SAN JOSE,2099,7732,1958,171,1115,,Sold,,,https://www.redfin.com/CA/San-Jose/1428-Lamore-Dr-95130/home/1257988,MLSListings,ML81841018,N,Y,37.2984725,-121.9774148
PAST SALE,August-21-2018,Single Family Residential,2175 Maroel Dr,SAN JOSE,CA,95130,1503000,3,2.0,SAN JOSE,1256,5895,1963,1206,1197,,Sold,,,https://www.redfin.com/CA/San-Jose/2175-Maroel-Dr-95130/home/1494392,MLSListings,ML81711313,N,Y,37.2822944,-121.986211
PAST SALE,March-6-2017,Single Family Residential,1501 Stockbridge Dr,SAN JOSE,CA,95130,1350000,3,2.5,SAN JOSE,1478,6372,1963,1739,913,,Sold,,,https://www.redfin.com/CA/San-Jose/1501-Stockbridge-Dr-95130/home/756896,MLSListings,ML81639097,N,Y,37.2967329,-121.970706
PAST SALE,September-2-2020,Single Family Residential,2066 Elmgrove Ln,SAN JOSE,CA,95130,1650000,3,2.0,SAN JOSE,1464,6121,1960,463,1127,,Sold,,,https://www.redfin.com/CA/San-Jose/2066-Elmgrove-Ln-95130/home/1402308,MLSListings,ML81803290,N,Y,37.2840411,-121.9898982
PAST SALE,,Single Family Residential,4911 Manitoba Dr,San Jose,CA,95130,1226000,4,2.0,,1359,6038,1962,,902,,,,,https://www.redfin.com/CA/San-Jose/4911-Manitoba-Dr-95130/home/814634,,,N,Y,37.2742126,-121.986211
PAST SALE,October-26-2021,Single Family Residential,1715 Duvall Dr,SAN JOSE,CA,95130,1300000,3,2.0,SAN JOSE,1035,5814,1958,44,1256,,Sold,,,https://www.redfin.com/CA/San-Jose/1715-Duvall-Dr-95130/home/1061700,MLSListings,ML81862809,N,Y,37.291225,-121.9850116
PAST SALE,October-15-2021,Single Family Residential,2129 Maroel Dr,SAN JOSE,CA,95130,1985000,4,2.0,SAN JOSE,1694,5714,1963,55,1172,,Sold,,,https://www.redfin.com/CA/San-Jose/2129-Maroel-Dr-95130/home/812544,MLSListings,ML81861445,N,Y,37.2829334,-121.986211
PAST SALE,,Single Family Residential,4720 Denevi Dr,San Jose,CA,95130,1725000,3,2.0,,1415,5992,1961,,1219,,,,,https://www.redfin.com/CA/San-Jose/4720-Denevi-Dr-95130/home/918149,,,N,Y,37.2776412,-121.9838121
PAST SALE,March-14-2019,Single Family Residential,1502 Stockbridge Dr,SAN JOSE,CA,95130,1499000,4,3.0,SAN JOSE,2433,7941,1960,1001,616,,Sold,,,https://www.redfin.com/CA/San-Jose/1502-Stockbridge-Dr-95130/home/838315,MLSListings,ML81739010,N,Y,37.2966811,-121.9701284
PAST SALE,December-5-2017,Single Family Residential,2263 Datoro Dr,SAN JOSE,CA,95130,1500000,4,2.0,SAN JOSE,1354,5500,1963,1465,1108,,Sold,,,https://www.redfin.com/CA/San-Jose/2263-Datoro-Dr-95130/home/812043,MLSListings,ML81685029,N,Y,37.2811093,-121.9852781
PAST SALE,September-9-2021,Single Family Residential,1689 Beck Dr,SAN JOSE,CA,95130,1710000,3,2.0,SAN JOSE,1458,6935,1961,91,1173,,Sold,,,https://www.redfin.com/CA/San-Jose/1689-Beck-Dr-95130/home/1061730,MLSListings,ML81860161,N,Y,37.2918591,-121.9720389
PAST SALE,April-17-2020,Single Family Residential,1436 Southwood Dr,SAN JOSE,CA,95130,1610000,3,2.0,SAN JOSE,1738,6836,1959,601,926,,Sold,,,https://www.redfin.com/CA/San-Jose/1436-Southwood-Dr-95130/home/1847152,MLSListings,ML81786150,N,Y,37.2972368,-121.9837677
PAST SALE,June-9-2021,Single Family Residential,11641 Southwood Dr,SARATOGA,CA,95070,1650000,3,1.0,SARATOGA,1401,10211,1952,183,1178,,Sold,,,https://www.redfin.com/CA/Saratoga/11641-Southwood-Dr-95070/home/1139818,MLSListings,ML81840980,N,Y,37.2987992,-121.9826349
PAST SALE,July-18-2017,Single Family Residential,4767 Parkwest Dr,SAN JOSE,CA,95130,1180000,3,2.0,SAN JOSE,1035,5800,1958,1605,1140,,Sold,,,https://www.redfin.com/CA/San-Jose/4767-Parkwest-Dr-95130/home/711697,MLSListings,ML81655870,N,Y,37.294755,-121.985753
PAST SALE,April-14-2020,Single Family Residential,4777 Parkwest Dr,SAN JOSE,CA,95130,1200000,3,2.0,SAN JOSE,1066,5662,1958,604,1126,,Sold,,,https://www.redfin.com/CA/San-Jose/4777-Parkwest-Dr-95130/home/756232,MLSListings,ML81783978,N,Y,37.2948528,-121.9859445
PAST SALE,January-20-2017,Single Family Residential,1575 Parkview Ave,SAN JOSE,CA,95130,1250000,4,2.0,SAN JOSE,1494,6527,1959,1784,837,,Sold,,,https://www.redfin.com/CA/San-Jose/1575-Parkview-Ave-95130/home/1515736,MLSListings,ML81633704,N,Y,37.2946155,-121.9826127
PAST SALE,August-25-2017,Single Family Residential,4728 Parkwest Dr,SAN JOSE,CA,95130,1445000,3,2.0,SAN JOSE,1425,5700,1958,1567,1014,,Sold,,,https://www.redfin.com/CA/San-Jose/4728-Parkwest-Dr-95130/home/971720,MLSListings,ML81671404,N,Y,37.2939476,-121.9854558
PAST SALE,July-27-2020,Single Family Residential,4754 Parkwest Dr,SAN JOSE,CA,95130,1300000,3,2.0,SAN JOSE,1185,6249,1958,500,1097,,Sold,,,https://www.redfin.com/CA/San-Jose/4754-Parkwest-Dr-95130/home/1859542,MLSListings,ML81798968,N,Y,37.2943025,-121.9859001
PAST SALE,July-17-2020,Single Family Residential,11811 Southwood Dr,SARATOGA,CA,95070,1550000,3,1.5,SARATOGA,1220,10032,1950,510,1270,,Sold,,,https://www.redfin.com/CA/SAN-JOSE/11811-SOUTHWOOD-DR-95130/home/1414744,MLSListings,ML81793722,N,Y,37.296203,-121.985729
PAST SALE,September-8-2020,Single Family Residential,1569 Duvall Dr,SAN JOSE,CA,95130,1850000,4,2.5,SAN JOSE,2210,6188,1960,457,837,,Sold,,,https://www.redfin.com/CA/San-Jose/1569-Duvall-Dr-95130/home/745550,MLSListings,ML81807311,N,Y,37.2931858,-121.9800582
PAST SALE,May-20-2021,Single Family Residential,4676 Mossbrook Cir,SAN JOSE,CA,95130,2150000,4,2.0,SAN JOSE,1671,6355,1962,203,1287,,Sold,,,https://www.redfin.com/CA/San-Jose/4676-Mossbrook-Cir-95130/home/1503130,MLSListings,ML81844974,N,Y,37.2900482,-121.9829903
PAST SALE,December-4-2020,Single Family Residential,5063 Elmgrove Ct,SAN JOSE,CA,95130,1640000,3,2.0,SAN JOSE,1544,7027,1960,370,1062,,Sold,,,https://www.redfin.com/CA/San-Jose/5063-Elmgrove-Ct-95130/home/1623349,MLSListings,ML81817700,N,Y,37.283838,-121.9906978
PAST SALE,August-2-2021,Single Family Residential,1819 Fallbrook Ave,SAN JOSE,CA,95130,1505000,3,3.0,SAN JOSE,2057,6896,1958,129,732,,Sold,,,https://www.redfin.com/CA/San-Jose/1819-Fallbrook-Ave-95130/home/1382797,MLSListings,ML81851794,N,Y,37.2896472,-121.9856335
PAST SALE,March-22-2019,Single Family Residential,1763 Fallbrook Ave,SAN JOSE,CA,95130,1070000,3,2.0,SAN JOSE,1035,6262,1958,993,1034,,Sold,,,https://www.redfin.com/CA/San-Jose/1763-Fallbrook-Ave-95130/home/1105551,MLSListings,ML81735778,N,Y,37.290481,-121.9846118
PAST SALE,June-10-2020,Single Family Residential,1771 Fallbrook Ave,SAN JOSE,CA,95130,1381000,4,2.0,SAN JOSE,1511,5757,1958,547,914,,Sold,,,https://www.redfin.com/CA/San-Jose/1771-Fallbrook-Ave-95130/home/886062,MLSListings,ML81789105,N,Y,37.2904033,-121.9847451
PAST SALE,June-7-2017,Single Family Residential,4218 Latimer Ave,SAN JOSE,CA,95130,1243000,3,2.0,SAN JOSE,1217,7571,1962,1646,1021,,Sold,,,https://www.redfin.com/CA/San-Jose/4218-Latimer-Ave-95130/home/755351,MLSListings,ML81649114,N,Y,37.2908028,-121.977548
PAST SALE,September-14-2020,Single Family Residential,11588 Southwood Dr,SARATOGA,CA,95070,1425000,5,2.0,SARATOGA,1880,9817,1952,451,758,,Sold,,,https://www.redfin.com/CA/Saratoga/11588-Southwood-Dr-95070/home/1297157,MLSListings,ML81806232,N,Y,37.2991417,-121.9804358
PAST SALE,,Single Family Residential,1541 McKinnon Ct,San Jose,CA,95130,1700000,4,3.0,,1874,15477,1959,,907,,,,,https://www.redfin.com/CA/San-Jose/1541-McKinnon-Ct-95130/home/756797,,,N,Y,37.2951533,-121.9787032
PAST SALE,June-30-2021,Single Family Residential,1532 Mckinnon Ct,SAN JOSE,CA,95130,1800000,3,2.0,SAN JOSE,1793,9115,1960,162,1004,,Sold,,,https://www.redfin.com/CA/San-Jose/1532-McKinnon-Ct-95130/home/1471142,MLSListings,ML81841960,N,Y,37.2950882,-121.97817
PAST SALE,October-10-2018,Single Family Residential,4345 Hilton Ave,SAN JOSE,CA,95130,1238400,3,2.0,SAN JOSE,1364,5950,1961,1156,908,,Sold,,,https://www.redfin.com/CA/San-Jose/4345-Hilton-Ave-95130/home/1804561,MLSListings,ML81720761,N,Y,37.2948226,-121.9783033
PAST SALE,December-20-2016,Single Family Residential,1421 Flora Ave,SAN JOSE,CA,95130,1475000,3,2.0,SAN JOSE,1525,9520,1967,1815,967,,Sold,,,https://www.redfin.com/CA/San-Jose/1421-Flora-Ave-95130/home/1306835,MLSListings,ML81631154,N,Y,37.2983633,-121.9759042
PAST SALE,September-23-2020,Single Family Residential,1369 Garrans Dr,SAN JOSE,CA,95130,1390000,3,2.0,SAN JOSE,1207,7446,1958,442,1152,,Sold,,,https://www.redfin.com/CA/San-Jose/1369-Garrans-Dr-95130/home/1829919,MLSListings,ML81804963,N,Y,37.2995136,-121.9793251
PAST SALE,April-23-2019,Single Family Residential,1373 Garrans Dr,SAN JOSE,CA,95130,1420000,3,2.0,SAN JOSE,1303,6904,1958,961,1090,,Sold,,,https://www.redfin.com/CA/San-Jose/1373-Garrans-Dr-95130/home/1284009,MLSListings,ML81743140,N,Y,37.2994346,-121.9795251
PAST SALE,June-15-2021,Single Family Residential,1330 Garrans Dr,SAN JOSE,CA,95130,1635000,3,2.0,SAN JOSE,1150,7606,1958,177,1422,,Sold,,,https://www.redfin.com/CA/San-Jose/1330-Garrans-Dr-95130/home/971757,MLSListings,ML81847282,N,Y,37.299833,-121.9770149
PAST SALE,January-10-2020,Single Family Residential,1300 Rosalia Ave,SAN JOSE,CA,95130,1450000,3,3.0,SAN JOSE,1507,10818,1952,699,962,,Sold,,,https://www.redfin.com/CA/San-Jose/1300-Rosalia-Ave-95130/home/624343,MLSListings,ML81769579,N,Y,37.3007104,-121.9743492
PAST SALE,October-17-2018,Single Family Residential,4076 Payne Ave,SAN JOSE,CA,95117,1250000,3,2.0,SAN JOSE,1248,6298,1958,1149,1002,,Sold,,,https://www.redfin.com/CA/San-Jose/4076-Payne-Ave-95117/home/1622026,MLSListings,ML81722135,N,Y,37.3007013,-121.9735051
PAST SALE,February-21-2020,Single Family Residential,4018 Yellowstone Dr,SAN JOSE,CA,95130,1400000,3,2.0,SAN JOSE,1144,5957,1958,657,1224,,Sold,,,https://www.redfin.com/CA/San-Jose/4018-Yellowstone-Dr-95130/home/597129,MLSListings,ML81779326,N,Y,37.2983021,-121.9718612
PAST SALE,June-30-2021,Single Family Residential,4045 Ribbon Dr,SAN JOSE,CA,95130,1620000,3,2.5,SAN JOSE,1487,6431,1958,162,1089,,Sold,,,https://www.redfin.com/CA/San-Jose/4045-Ribbon-Dr-95130/home/756999,MLSListings,ML81840792,N,Y,37.300496,-121.9724388
PAST SALE,October-27-2017,Single Family Residential,3738 Compton Ln,SAN JOSE,CA,95130,1635000,4,3.0,SAN JOSE,1940,6510,1959,1504,843,,Sold,,,https://www.redfin.com/CA/San-Jose/3738-Compton-Ln-95130/home/1499597,MLSListings,ML81679307,N,Y,37.2979291,-121.9677292
PAST SALE,January-22-2021,Single Family Residential,1387 Klamath Dr,SAN JOSE,CA,95130,1580000,3,2.0,SAN JOSE,1248,6039,1958,321,1266,,Sold,,,https://www.redfin.com/CA/San-Jose/1387-Klamath-Dr-95130/home/1450473,MLSListings,ML81825150,N,Y,37.2988941,-121.9730164
PAST SALE,February-19-2019,Single Family Residential,3706 Compton Ln,SAN JOSE,CA,95130,1420000,3,2.0,SAN JOSE,1502,7035,1959,1024,945,,Sold,,,https://www.redfin.com/CA/San-Jose/3706-Compton-Ln-95130/home/1263416,MLSListings,ML81735609,N,Y,37.2979367,-121.9673293
PAST SALE,January-12-2017,Single Family Residential,3707 Gleason Ave,SAN JOSE,CA,95130,1220000,3,2.0,SAN JOSE,1502,7350,1959,1792,812,,Sold,,,https://www.redfin.com/CA/San-Jose/3707-Gleason-Ave-95130/home/1213366,MLSListings,ML81633225,N,Y,37.297636,-121.9673293
PAST SALE,September-18-2020,Single Family Residential,3737 Shaynor Ct,SAN JOSE,CA,95130,1600000,3,2.0,SAN JOSE,1500,11700,1959,447,1067,,Sold,,,https://www.redfin.com/CA/San-Jose/3737-Shaynor-Ct-95130/home/1662417,MLSListings,ML81808398,N,Y,37.2990675,-121.967818
PAST SALE,June-27-2018,Single Family Residential,1300 Poe Ln,San Jose,CA,95130,1550000,4,3.0,San Jose Cc,2484,5565,1990,1261,624,,Sold,,,https://www.redfin.com/CA/San-Jose/1300-Poe-Ln-95130/home/757233,"bridgeMLS, Bay East AOR, or Contra Costa AOR",40822163,N,Y,37.3008597,-121.9691065
PAST SALE,June-14-2017,Single Family Residential,1378 Wylie Way,SAN JOSE,CA,95130,1400000,4,2.0,SAN JOSE,1502,6405,1959,1639,932,,Sold,,,https://www.redfin.com/CA/San-Jose/1378-Wylie-Way-95130/home/1687424,MLSListings,ML81651185,N,Y,37.2986962,-121.9682401
PAST SALE,June-9-2021,Single Family Residential,3689 Kendra Way,SAN JOSE,CA,95130,1843000,3,2.0,SAN JOSE,1737,6000,1965,183,1061,,Sold,,,https://www.redfin.com/CA/San-Jose/3689-Kendra-Way-95130/home/1438027,MLSListings,ML81848135,N,Y,37.2961322,-121.9660185
PAST SALE,,Single Family Residential,3631 Mona Way,San Jose,CA,95130,900000,3,2.0,,1346,6409,1965,,669,,,,,https://www.redfin.com/CA/San-Jose/3631-Mona-Way-95130/home/756382,,,N,Y,37.2962692,-121.9640635
PAST SALE,November-10-2020,Single Family Residential,3616 Compton Ln,SAN JOSE,CA,95130,1960000,4,3.0,SAN JOSE,2005,6315,2020,394,978,,Sold,,,https://www.redfin.com/CA/San-Jose/3616-Compton-Ln-95130/home/1450435,MLSListings,ML81804547,N,Y,37.2986584,-121.9649299
PAST SALE,October-31-2017,Single Family Residential,1348 Darryl Dr,SAN JOSE,CA,95130,790000,2,1.0,SAN JOSE,905,3222,1960,1500,873,150,Sold,,,https://www.redfin.com/CA/San-Jose/1348-Darryl-Dr-95130/home/45107073,MLSListings,ML81678007,N,Y,37.2996634,-121.9647865
PAST SALE,March-31-2021,Single Family Residential,3620 Countrywood Ct,SAN JOSE,CA,95130,2150000,5,3.5,SAN JOSE,2405,7260,1974,253,894,,Sold,,,https://www.redfin.com/CA/San-Jose/3620-Countrywood-Ct-95130/home/757603,MLSListings,ML81831213,N,Y,37.2991612,-121.9655076
PAST SALE,September-7-2021,Single Family Residential,1693 Beck Dr,SAN JOSE,CA,95130,1465000,3,2.0,SAN JOSE,1600,7642,1961,93,916,,Sold,,,https://www.redfin.com/CA/San-Jose/1693-Beck-Dr-95130/home/757858,MLSListings,ML81852625,N,Y,37.2916833,-121.9720611
PAST SALE,September-17-2020,Single Family Residential,430 Cloverdale Ln,SAN JOSE,CA,95130,1999995,4,4.5,SAN JOSE,3129,10207,1955,448,639,,Sold,,,https://www.redfin.com/CA/Campbell/430-Cloverdale-Ln-95008/home/663858,MLSListings,ML81801079,N,Y,37.2923281,-121.9724166
PAST SALE,October-14-2020,Single Family Residential,1678 Hayford Dr,SAN JOSE,CA,95130,1800000,5,3.0,SAN JOSE,2703,6335,1960,421,666,,Sold,,,https://www.redfin.com/CA/San-Jose/1678-Hayford-Dr-95130/home/649001,MLSListings,ML81805978,N,Y,37.2922959,-121.9734607
PAST SALE,November-13-2020,Single Family Residential,413 Cloverdale Ln,CAMPBELL,CA,95008,1760000,3,2.5,CAMPBELL,1988,10002,1954,391,885,,Sold,,,https://www.redfin.com/CA/Campbell/413-Cloverdale-Ln-95008/home/1226755,MLSListings,ML81813478,N,Y,37.2920645,-121.9731052
PAST SALE,March-19-2021,Single Family Residential,1715 Mendenhall Dr,SAN JOSE,CA,95130,1930000,4,3.0,SAN JOSE,1717,6260,1964,265,1124,,Sold,,,https://www.redfin.com/CA/San-Jose/1715-Mendenhall-Dr-95130/home/1791903,MLSListings,ML81827797,N,Y,37.2915916,-121.9749268
PAST SALE,July-12-2021,Single Family Residential,1727 Mendenhall Dr,SAN JOSE,CA,95130,1670000,4,2.0,SAN JOSE,1687,6260,1964,150,990,,Sold,,,https://www.redfin.com/CA/San-Jose/1727-Mendenhall-Dr-95130/home/1754353,MLSListings,ML81845522,N,Y,37.2914413,-121.9749268
PAST SALE,December-30-2020,Townhouse,4207 Hamilton Ave,SAN JOSE,CA,95130,775000,2,2.0,SAN JOSE,1298,699,1984,344,597,200,Sold,,,https://www.redfin.com/CA/San-Jose/4207-Hamilton-Ave-95130/home/1417266,MLSListings,ML81818259,N,Y,37.294051,-121.977032
PAST SALE,October-15-2019,Single Family Residential,1350 Vernal Dr,SAN JOSE,CA,95130,1350000,3,2.0,SAN JOSE,1635,6039,1958,786,826,,Sold,,,https://www.redfin.com/CA/San-Jose/1350-Vernal-Dr-95130/home/756968,MLSListings,ML81767927,N,Y,37.2993643,-121.9733274
PAST SALE,June-25-2020,Single Family Residential,2414 Verwood Dr,SAN JOSE,CA,95130,1350000,3,2.0,SAN JOSE,1204,6033,1964,532,1121,,Sold,,,https://www.redfin.com/CA/San-Jose/2414-Verwood-Dr-95130/home/1026508,MLSListings,ML81794628,N,Y,37.2785115,-121.9808578
PAST SALE,October-29-2021,Single Family Residential,1570 Parkview Ave,SAN JOSE,CA,95130,2130000,5,4.0,SAN JOSE,2622,7440,1959,41,812,,Sold,,,https://www.redfin.com/CA/San-Jose/1570-Parkview-Ave-95130/home/754559,MLSListings,ML81862794,N,Y,37.2944014,-121.9820129
PAST SALE,October-9-2018,Single Family Residential,3664 Compton Ln,SAN JOSE,CA,95130,2060000,4,3.5,SAN JOSE,2261,9194,1965,1157,911,,Sold,,,https://www.redfin.com/CA/San-Jose/3664-Compton-Ln-95130/home/1083521,MLSListings,ML81719093,N,Y,37.298242,-121.9657519
PAST SALE,May-4-2017,Single Family Residential,2330 Dorval,SAN JOSE,CA,95130,1205904,5,4.5,SAN JOSE,3700,7875,2018,1680,326,,Sold,,,https://www.redfin.com/CA/San-Jose/2330-Dorval-Dr-95130/home/785218,MLSListings,ML81647885,N,Y,37.2802792,-121.97817
PAST SALE,November-27-2019,Single Family Residential,1601 Duvall Dr,SAN JOSE,CA,95130,1260000,4,3.0,SAN JOSE,1914,6169,1960,743,658,,Sold,,,https://www.redfin.com/CA/San-Jose/1601-Duvall-Dr-95130/home/1022737,MLSListings,ML81771575,N,Y,37.2931451,-121.9808801
PAST SALE,October-23-2020,Single Family Residential,17891 Los Alamos Dr,SARATOGA,CA,95070,1900000,4,2.0,SARATOGA,1660,10100,1950,412,1145,,Sold,,,https://www.redfin.com/CA/Saratoga/17891-Los-Alamos-Dr-95070/home/1515595,MLSListings,ML81811025,N,Y,37.2967132,-121.9836344
PAST SALE,October-1-2021,Single Family Residential,4168 Moreland Way,SAN JOSE,CA,95130,1750000,3,1.5,SAN JOSE,1080,10202,1949,69,1620,,Sold,,,https://www.redfin.com/CA/San-Jose/4168-Moreland-Way-95130/home/829053,MLSListings,ML81859599,N,Y,37.2974747,-121.9758598
PAST SALE,August-8-2019,Single Family Residential,5211 Elmwood Dr,SAN JOSE,CA,95130,1500000,4,2.0,SAN JOSE,1554,6595,1958,854,965,,Sold,,,https://www.redfin.com/CA/San-Jose/5211-Elmwood-Dr-95130/home/1616284,MLSListings,ML81759818,N,Y,37.2877272,-121.9923858
